city,neighborhood,zip_code,street_name,street_number,floor,floor_location,door,property_type,construction_date,renovation_year,number_of_rooms,number_of_bedrooms,number_of_bathrooms,number_of_balconies,number_of_garages,number_of_parking,number_of_floors,number_of_units,living_area,total_area,is_barrier_free,heating_type,has_energy_certificate,has_garage,has_parking,has_balcony,price,lon,lat
lopppp,Ludwigsfeld,90478,Schanzenstraße,13,,,,multi_family_house,2014-02-09,,,,,,,,,15.0,1288.0,913.0,,,,,False,,999999999.0,11.099906,49.446582
London,Ludwigsfeld,90478,Schanzenstraße,13,,,,multi_family_house,2014-02-09,,,,,,,,,15.0,1288.0,913.0,,,,,False,,999999999.0,11.099906,49.446582
Munchen,Ludwigsfeld,90478,Schanzenstraße,13,,,,multi_family_house,2014-02-09,,,,,,,,,15.0,1288.0,913.0,,,,,False,,999999999.0,11.099906,49.446582
Nürnberg,Ludwigsfeld,90478,Schanzenstraße,13,,,,multi_family_house,2014-02-09,,,,,,,,,15.0,1288.0,913.0,,,,,False,,999999999.0,11.099906,49.446582
Nürnberg,Marienvorstadt,90402,Hadermühle,6,,,,multi_family_house,1987-10-19,,,,,,,,,5.0,475.0,821.0,,,,,False,,1.0,11.088089,49.450603
Nürnberg,Ludwigsfeld,90478,Velburger Straße,49,,,,multi_family_house,1967-04-18,,,,,,,,,9.0,601.0,593.0,,,,,False,,,11.110542,49.442524000000006
Nürnberg,Mögeldorf,90482,Ebenreuther Straße,32,,,,single_family_house,1972-05-18,,,,,,,,,1.0,125.0,349.0,,,,,False,,470103.0,11.144319999999999,49.465485
Nürnberg,Boxdorf,90427,St.-Joseph-Siedlung,7,,,,single_family_house,1964-06-06,,,,,,,,,1.0,91.0,169.0,,,,,False,,349652.0,11.030407,49.517823
Nürnberg,Neunhof,90427,Martin-Gnad-Straße,32,,,,,2027-10-09,,,,,,,,,1.0,114.0,564.0,,,,,False,,642643.0,11.045637,49.517025
Nürnberg,Großgründlach,90427,Offenbacher Straße,4,,,,single_family_house,1977-04-01,,,,,,,,,1.0,161.0,659.0,,,,,False,,517812.0,11.009544,49.525911
Nürnberg,"Kornburg, Worzeldorf",90455,Zum Klösterle,33,,,,single_family_house,1988-01-17,,,,,,,,,1.0,192.0,898.0,,,,,False,,627442.0,11.07602,49.379830000000005
Nürnberg,Wöhrd,90489,Ludwig-Feuerbach-Straße,36,,,,,1943-02-04,,,,,,,,,11.0,676.0,537.0,,,,,False,,1972740.0,11.096662,49.460285
Nürnberg,Galgenhof,90459,Bulmannstraße,34,,,,multi_family_house,1905-08-10,,,,,,,,,11.0,771.0,277.0,,,,,False,,1982654.0,11.083517,49.439819
Nürnberg,Gartenstadt,90469,Muldenweg,15,,,,single_family_house,1939-11-25,,,,,,,,,1.0,114.0,321.0,,,,,False,,252770.0,11.074257,49.417775
Nürnberg,Ludwigsfeld,90478,Schloßstraße,24,,,,multi_family_house,1977-09-07,,,,,,,,,15.0,918.0,757.0,,,,,False,,2668155.0,11.104324,49.444284
Nürnberg,Ludwigsfeld,90478,Ludwig-Frank-Straße,8,,,,single_family_house,1942-03-04,,,,,,,,,1.0,89.0,477.0,,,,,False,,236740.0,11.1077,49.439315
Nürnberg,Marienberg ,90411,Herrnhüttestraße,47,,,,single_family_house,2028-11-13,,,,,,,,,1.0,152.0,268.0,,,,,False,,495454.0,11.101977,49.480446
Nürnberg,Gaismannshof,90431,Neustädter Straße,39,,,,single_family_house,1929-01-08,,,,,,,,,1.0,94.0,269.0,,,,,False,,,11.027714,49.45451
Nürnberg,Boxdorf,90427,Zum Himmelreich,1 a,,,,single_family_house,1963-02-03,,,,,,,,,1.0,139.0,883.0,,,,,False,,467160.0,11.024745999999999,49.519677
Nürnberg,Ziegelstein,90411,Ziegelsteinstraße,222 a,,,,single_family_house,1982-02-19,,,,,,,,,1.0,108.0,310.0,,,,,False,,494443.0,11.108189999999999,49.490757
Nürnberg,Erlenstegen,90491,Günthersbühler Straße,25,,,,single_family_house,1931-01-03,,,,,,,,,1.0,174.0,721.0,,,,,False,,890525.0,11.137338,49.474470000000004
Nürnberg,Großreuth b. Schweinau,90431,Wallensteinstraße,48,,,,multi_family_house,1962-08-09,,,,,,,,,4.0,235.0,321.0,,,,,False,,641003.0,11.034350000000002,49.43883
Nürnberg,Himpfelshof,90419,Kleinweidenmühle,17,,,,single_family_house,1993-06-09,,,,,,,,,1.0,103.0,264.0,,,,,False,,540391.0,11.063492,49.455865
Nürnberg,Dianastraße,90441,Dianastraße,65,,,,multi_family_house,1895-04-26,,,,,,,,,4.0,367.0,756.0,,,,,False,,535118.0,11.064834,49.426737
Nürnberg,Katzwang,90453,Harrlacher Straße,57,,,,single_family_house,1970-07-26,,,,,,,,,1.0,101.0,262.0,,,,,False,,458370.0,11.045682,49.373698000000005
Nürnberg,Werderau,90441,Kochstraße,19,,,,multi_family_house,1939-05-02,,,,,,,,,8.0,490.0,1094.0,,,,,False,,943301.0,11.063307,49.422007
Nürnberg,Katzwang,90453,Brunnauer Straße,7,2.0,right,,apartment,1999-09-10,2018-01-01,4.0,,,,,0.0,0.0,1.0,143.0,-1.0,,central_heating,,,,True,380032.0,11.044743,49.372455
Nürnberg,Guntherstraße,90461,Rankestraße,27,,,,multi_family_house,1954-04-25,,,,,,,,,14.0,1370.0,577.0,,,,,False,,3621131.0,11.10042,49.437698
Nürnberg,Langwasser Südwest,90469,Neulandstraße,1 a,,,,single_family_house,1975-04-06,,,,,,,,,1.0,125.0,345.0,,,,,False,,406990.0,11.120572,49.39944
Nürnberg,Glockenhof,90478,Sophienstraße,19,,,,multi_family_house,2003-04-05,,,,,,,,,9.0,472.0,536.0,,,,,False,,1712340.0,11.094943,49.444924
Nürnberg,Himpfelshof,90429,Fürther Straße,22,,,,,1894-07-05,,,,,,,,,9.0,850.0,490.0,,,,,False,,2649243.0,11.060201,49.44980399999999
Nürnberg,Schmausenbuckstraße,90480,Lupinenweg,2,,,,single_family_house,1946-01-07,,,,,,,,,1.0,137.0,517.0,,,,,False,,486722.0,11.130228,49.453623
Nürnberg,Trierer Straße,90469,Worzeldorfer Straße,84,,,,single_family_house,1951-05-10,,,,,,,,,1.0,105.0,496.0,,,,,False,,389742.0,11.102568,49.404853
Nürnberg,Werderau,90441,Heisterstraße,36,,,,multi_family_house,1985-11-12,,,,,,,,,7.0,480.0,638.0,,,,,False,,1179370.0,11.063167,49.425755
Nürnberg,Marienberg ,90411,Egloffsteiner Straße,17,,,,single_family_house,1919-03-27,,,,,,,,,1.0,116.0,321.0,,,,,False,,338081.0,11.101216,49.481516
Nürnberg,Großgründlach,90427,Am Pfarrbaum,9,,,,single_family_house,1956-11-11,,,,,,,,,1.0,131.0,500.0,,,,,False,,396895.0,11.013803999999999,49.531517
Nürnberg,Erlenstegen,90491,Günthersbühler Straße,20,,,,single_family_house,1949-05-14,,,,,,,,,1.0,172.0,899.0,,,,,False,,799021.0,11.138983000000001,49.474118
Nürnberg,Eibach,90451,Castellstraße,89 a,,,,single_family_house,1979-11-01,,,,,,,,,1.0,141.0,783.0,,,,,False,,517261.0,11.023962,49.409858
Nürnberg,Eibach,90451,Schönwaldstraße,13,,,,single_family_house,2009-06-13,,,,,,,,,1.0,117.0,705.0,,,,,False,,596949.0,11.032850999999999,49.398524
Nürnberg,Gaismannshof,90431,Paracelsusstraße,47,,,,single_family_house,1960-05-03,,,,,,,,,1.0,107.0,333.0,,,,,False,,401034.0,11.024723,49.442907
Nürnberg,Großreuth b. Schweinau,90431,Elsa-Brändström-Straße,15,,,,multi_family_house,1958-07-10,,,,,,,,,4.0,223.0,305.0,,,,,False,,830024.0,11.031331,49.440154
Nürnberg,Katzwang,90453,Harrlacher Straße,14,,,,multi_family_house,2000-05-20,,,,,,,,,7.0,636.0,764.0,,,,,False,,2079886.0,11.042091000000001,49.371877999999995
Nürnberg,Galgenhof,90459,Kopernikusstraße,10,,,,multi_family_house,2000-03-06,,,,,,,,,20.0,1752.0,466.0,,,,,False,,6331744.0,11.083036,49.438322
Nürnberg,Langwasser Südost,90473,Max-Wönner-Straße,27,,,,single_family_house,1975-03-05,,,,,,,,,1.0,131.0,553.0,,,,,False,,495356.0,11.151024,49.405357
Nürnberg,Erlenstegen,90491,Dahlmannstraße,88,,,,single_family_house,1948-02-08,,,,,,,,,1.0,120.0,289.0,,,,,False,,526657.0,11.120477000000001,49.473087
Nürnberg,Eibach,90451,Pappenheimer Straße,39,,,,multi_family_house,1951-08-09,,,,,,,,,3.0,294.0,500.0,,,,,False,,611482.0,11.032588,49.39553
Nürnberg,Gaismannshof,90431,Sankt-Gallen-Ring,160,,,,single_family_house,1990-10-05,,,,,,,,,1.0,144.0,326.0,,,,,False,,563196.0,11.029211,49.442936
Nürnberg,Marienberg ,90411,Egloffsteiner Straße,49,,,,single_family_house,1928-09-01,,,,,,,,,1.0,118.0,337.0,,,,,False,,325218.0,11.100988,
Nürnberg,Großgründlach,90427,Brucker Straße,22,,,,single_family_house,1961-05-26,,,,,,,,,1.0,122.0,278.0,,,,,False,,381713.0,11.012081,49.531361000000004
Nürnberg,Gostenhof,90443,Gostenhofer Schulgasse,32,,,,,2006-11-15,,,,,,,,,10.0,664.0,715.0,,,,,False,,1970372.0,11.06308,49.447096
Nürnberg,"Altenfurt, Moorenbrunn",90475,Hermann-Kolb-Straße,21,,,,single_family_house,1950-02-08,,,,,,,,,1.0,112.0,266.0,,,,,False,,306714.0,11.179756000000001,49.402577
Nürnberg,Schmausenbuckstraße,90480,Siedlerstraße,162,,,,multi_family_house,1958-03-23,,,,,,,,,2.0,339.0,805.0,,,,,True,,867840.0,11.134641,49.453561
Nürnberg,St. Jobst,90491,Clausewitzstraße,41,,,,single_family_house,1923-09-08,,,,,,,,,1.0,118.0,263.0,,,,,False,,426877.0,11.111079,49.465016
Nürnberg,"Altenfurt, Moorenbrunn",90475,Altenfurter Straße,88 c,,,,,1991-04-26,,,,,,,,,1.0,110.0,305.0,,,,,False,,350730.0,11.178323,49.401209
Nürnberg,Maxfeld,90409,Schmausengartenstraße,17,,,,multi_family_house,1974-11-07,,,,,,,,,6.0,544.0,332.0,,,,,False,,1813294.0,11.086698,49.463429
Nürnberg,Bärenschanze,90429,Mannertstraße,22 a,,,,multi_family_house,1897-02-08,,,,,,,,,8.0,520.0,889.0,,,,,False,,1203665.0,11.044603,49.456471
Nürnberg,Bielingplatz,90419,Friedrich-Löffler-Straße,31,,,,single_family_house,1939-01-23,,,,,,,,,1.0,138.0,297.0,,,,,True,,445383.0,11.058838999999999,49.465292
Nürnberg,St. Jobst,90491,Tauroggenstraße,28,,,,single_family_house,1939-10-05,,,,,,,,,1.0,103.0,284.0,,,,,False,,378668.0,11.108270000000001,49.461936
Nürnberg,Gleißhammer,90480,Schöpfstraße,17,,,,multi_family_house,1978-02-18,,,,,,,,,27.0,1912.0,837.0,,,,,False,,5150500.0,11.120037,49.442113
Nürnberg,Großreuth b. Schweinau,90431,Tillypark,120,,,,single_family_house,2008-03-25,,,,,,,,,1.0,90.0,292.0,,,,,False,,461752.0,11.036774,49.435427000000004
Nürnberg,Tafelhof,90402,Vordere Sterngasse,23,,,,multi_family_house,1965-07-06,,,,,,,,,9.0,575.0,160.0,,,,,False,,2138763.0,11.078227,49.447192
Nürnberg,Glockenhof,90461,Forsthofstraße,4 c,,,,single_family_house,2020-02-02,,,,,,,,,1.0,117.0,333.0,,,,,False,,606571.0,11.091596000000001,49.438181
Nürnberg,Gartenstadt,90469,Neunkirchener Straße,90,,,,multi_family_house,1998-02-15,,,,,,,,,2.0,334.0,784.0,,,,,False,,805641.0,11.082027,49.404063
Nürnberg,Boxdorf,90427,Thomas-Dehler-Straße,69,,,,single_family_house,1957-05-08,,,,,,,,,1.0,118.0,316.0,,,,,False,,384242.0,11.027849,49.514079
Nürnberg,Schleifweg,90409,Steigerwaldstraße,45,,,,multi_family_house,2015-01-04,,,,,,,,,4.0,430.0,611.0,,,,,False,,2000743.0,11.097465,49.470351
Nürnberg,Werderau,90441,Rüsternweg,187,,,,,1986-10-20,,,,,,,,,2.0,177.0,559.0,,,,,False,,565352.0,11.059522,49.415783999999995
Nürnberg,Schmausenbuckstraße,90480,Drosselweg,17,,,,single_family_house,1986-08-11,,,,,,,,,1.0,119.0,345.0,,,,,False,,516979.0,11.142813,49.460511
Nürnberg,"Kornburg, Worzeldorf",90455,Spitzwegstraße,10,,,,single_family_house,1931-05-03,,,,,,,,,1.0,138.0,511.0,,,,,False,,349815.0,11.099274,49.374981
Nürnberg,Steinbühl,90443,Humboldtstraße,24,,,,multi_family_house,1964-09-23,,,,,,,,,16.0,1393.0,474.0,,,,,False,,2796490.0,11.069723,49.436751
Nürnberg,Höfen,90431,Karl-Martell-Straße,20,,,,single_family_house,1948-10-02,,,,,,,,,1.0,108.0,278.0,,,,,False,,326143.0,11.015823000000001,49.456482
Nürnberg,Thon,90425,Helgolander Straße,30,,,,single_family_house,1975-10-05,,,,,,,,,1.0,102.0,279.0,,,,,False,,452645.0,11.064332,49.478754
Nürnberg,"Altstadt, St. Sebald",90403,Geiersberg,2,,,,single_family_house,1910-09-27,,,,,,,,,1.0,146.0,310.0,,,,,False,,337290.0,11.072628,49.455508
Nürnberg,"Altenfurt, Moorenbrunn",90475,Hohenzollernstraße,27,,,,single_family_house,1981-02-11,,,,,,,,,1.0,151.0,591.0,,,,,False,,426292.0,11.172336,49.402276
Nürnberg,Katzwang,90455,Baimbacher Weg,18,,,,single_family_house,1957-03-06,,,,,,,,,1.0,133.0,764.0,,,,,False,,386245.0,11.043397,49.353088
Nürnberg,Katzwang,90455,Am Kreuzberg,11,,,,multi_family_house,1961-05-18,,,,,,,,,4.0,303.0,471.0,,,,,True,,684664.0,11.057923,49.354829
Nürnberg,Galgenhof,90459,Wirthstraße,58,,,,multi_family_house,1903-07-27,,,,,,,,,15.0,1121.0,264.0,,,,,False,,2855143.0,11.087848000000001,49.438972
Nürnberg,St. Leonhard,90439,Kurt-Karl-Doberer-Straße,52,,,,,2018-03-06,,,,,,,,,1.0,116.0,341.0,,,,,False,,404172.0,11.053997,49.441886000000004
Nürnberg,Bielingplatz,90419,Rieterstraße,53,,,,multi_family_house,1890-09-05,,,,,,,,,9.0,592.0,312.0,,,,,False,,2103805.0,11.064589,49.46230499999999
Nürnberg,Katzwang,90455,Robert-Stolz-Straße,41,,,,single_family_house,1970-07-27,,,,,,,,,1.0,112.0,333.0,,,,,False,,353576.0,11.064162,49.353365000000004
Nürnberg,Thon,90425,Schweriner Straße,10,,,,single_family_house,1983-08-01,,,,,,,,,1.0,105.0,321.0,,,,,False,,507797.0,11.068613,49.478255
Nürnberg,Gebersdorf,90449,Windsbacher Straße,2,,,,single_family_house,1972-07-07,,,,,,,,,1.0,122.0,599.0,,,,,False,,363342.0,10.999445000000001,49.432915
Nürnberg,Zerzabelshof,90480,Siebenbürger Straße,29,,,,single_family_house,1971-03-05,,,,,,,,,1.0,111.0,338.0,,,,,False,,342372.0,11.128127,49.437846
Nürnberg,Glockenhof,90478,Regensburger Straße,46,,,,multi_family_house,1882-05-07,,,,,,,,,2.0,182.0,795.0,,,,,False,,515116.0,11.096952,49.444742000000005
Nürnberg,Bielingplatz,90419,Friedrich-Löffler-Straße,40,,,,single_family_house,1979-04-27,,,,,,,,,1.0,129.0,326.0,,,,,False,,490766.0,11.058603999999999,49.466307
Nürnberg,Höfen,90431,Höfener Straße,111 a,,,,multi_family_house,1972-05-26,,,,,,,,,2.0,253.0,628.0,,,,,False,,659389.0,11.010024,49.455341000000004
Nürnberg,Ludwigsfeld,90478,Immelmannstraße,24,,,,,1962-03-21,,,,,,,,,1.0,98.0,323.0,,,,,False,,394874.0,11.108645,49.439746
Nürnberg,Uhlandstraße,90408,Grünewaldstraße,25,,,,multi_family_house,1931-07-20,,,,,,,,,7.0,476.0,850.0,,,,,False,,1348911.0,11.074612,49.468426
Nürnberg,Langwasser Südost,90473,Striegauer Straße,39,,,,multi_family_house,1978-07-27,,,,,,,,,11.0,803.0,863.0,,,,,False,,1994171.0,11.142564,49.403875000000006
Nürnberg,Eibach,90451,Schußleitenweg,75,,,,single_family_house,1909-04-08,,,,,,,,,1.0,91.0,514.0,,,,,False,,395011.0,11.028649999999999,49.409330000000004
Nürnberg,Hummelstein,90459,Pillenreuther Straße,106,,,,multi_family_house,1959-01-14,,,,,,,,,11.0,599.0,309.0,,,,,False,,1539398.0,11.085130000000001,49.434222
Nürnberg,"Altenfurt, Moorenbrunn",90475,Streubuck,46,,,,,1970-06-08,,,,,,,,,3.0,271.0,621.0,,,,,False,,643171.0,11.173198,49.392655999999995
Nürnberg,Zerzabelshof,90480,Großstraße,3,,,,,1941-01-01,,,,,,,,,5.0,339.0,572.0,,,,,False,,1236145.0,11.12715,49.444009
Nürnberg,Gaismannshof,90431,Manteuffelstraße,7,,,,multi_family_house,1987-06-02,,,,,,,,,4.0,247.0,261.0,,,,,False,,660258.0,11.034411,49.441541
Nürnberg,"Kornburg, Worzeldorf",90455,Alfred-Isaac-Straße,8,,,,single_family_house,1998-09-27,,,,,,,,,1.0,144.0,282.0,,,,,False,,541878.0,11.081173,49.374337
Nürnberg,Himpfelshof,90429,Deutschherrnstraße,39,,,,multi_family_house,1900-02-17,,,,,,,,,2.0,241.0,500.0,,,,,False,,613075.0,11.060625,49.454275
Nürnberg,Thon,90425,Michaelstraße,26,,,,single_family_house,1955-09-27,,,,,,,,,1.0,129.0,540.0,,,,,False,,471849.0,11.068014000000002,49.474693
Nürnberg,Katzwang,90455,Wolkersdorfer Straße,187,,,,,1949-08-12,,,,,,,,,1.0,138.0,1116.0,,,,,False,,499804.0,11.042021,49.352989
Nürnberg,Langwasser Südwest,90473,Julius-Leber-Straße,42,,,,single_family_house,1945-04-23,,,,,,,,,1.0,110.0,270.0,,,,,False,,313808.0,11.136959999999998,49.396271
Nürnberg,Schoppershof,90491,Thorner Straße,24,,,,single_family_house,1943-01-10,,,,,,,,,1.0,132.0,491.0,,,,,False,,463661.0,11.107538,49.467873
Nürnberg,Schniegling,90427,Wilhelm-Busch-Straße,12,,,,single_family_house,1956-02-18,,,,,,,,,1.0,110.0,346.0,,,,,True,,315037.0,11.018996999999999,49.472031000000015
Nürnberg,Boxdorf,90427,St.-Joseph-Siedlung,5,,,,single_family_house,1972-07-03,,,,,,,,,1.0,103.0,190.0,,,,,False,,366920.0,11.030505,49.517798
Nürnberg,Buchenbühl,90411,Ehrenbürgweg,53,,,,multi_family_house,1949-05-09,,,,,,,,,2.0,223.0,557.0,,,,,False,,641605.0,11.103004,49.506241
Nürnberg,"Altstadt, St. Sebald",90403,Innere Cramer-Klett-Straße,14,,,,multi_family_house,1940-08-24,,,,,,,,,8.0,445.0,304.0,,,,,False,,1625044.0,11.087134,49.455469
Nürnberg,Schleifweg,90409,Virchowstraße,40,,,,,1982-10-27,,,,,,,,,3.0,231.0,576.0,,,,,False,,790372.0,11.093467,49.469217
Nürnberg,Erlenstegen,90491,Eichendorffstraße,45,,,,single_family_house,1949-05-12,,,,,,,,,1.0,168.0,754.0,,,,,False,,742311.0,11.126472,49.474363
Nürnberg,Fischbach,90475,Tolstoistraße,15,,,,multi_family_house,1935-09-17,,,,,,,,,3.0,293.0,269.0,,,,,False,,882898.0,11.192481999999998,49.41857
Nürnberg,Gugelstraße,90459,Siemensstraße,18,,,,multi_family_house,1956-01-15,,,,,,,,,8.0,519.0,581.0,,,,,False,,1152010.0,11.080048999999999,49.433842999999996
Nürnberg,Marienberg ,90425,Kilianstraße,127 a,,,,multi_family_house,1977-07-15,,,,,,,,,6.0,439.0,483.0,,,,,False,,2077145.0,11.084372,49.474145
Nürnberg,Katzwang,90455,Karl-Marx-Straße,13,,,,single_family_house,1962-06-08,,,,,,,,,1.0,119.0,276.0,,,,,False,,249482.0,11.059938,49.352461000000005
Nürnberg,Wetzendorf,90425,Rostocker Straße,27,,,,,1958-03-09,,,,,,,,,3.0,157.0,335.0,,,,,False,,458135.0,11.057458,49.478434
Nürnberg,Hasenbuck,90461,Ingolstädter Straße,69,,,,single_family_house,1949-08-15,,,,,,,,,1.0,116.0,261.0,,,,,False,,389780.0,11.094983,49.427386000000006
Nürnberg,Fischbach,90475,Holzstatt,3,,,,multi_family_house,1931-01-05,,,,,,,,,2.0,263.0,317.0,,,,,False,,810194.0,11.199608999999999,49.419117
Nürnberg,Gaismannshof,90431,Herzogenauracher Straße,56,,,,single_family_house,1968-10-20,,,,,,,,,1.0,128.0,291.0,,,,,False,,326446.0,11.033612999999999,49.452659
Nürnberg,Uhlandstraße,90408,Innere Kobergerstraße,15,,,,multi_family_house,1982-09-27,,,,,,,,,5.0,470.0,315.0,,,,,False,,1792043.0,11.080326000000001,49.463905000000004
Nürnberg,Werderau,90441,Wacholderweg,34,,,,single_family_house,1911-06-02,,,,,,,,,1.0,110.0,488.0,,,,,False,,273578.0,11.064257,49.416558
Nürnberg,Ziegelstein,90411,Am Bauernwald,41,,,,single_family_house,1930-11-05,,,,,,,,,1.0,133.0,502.0,,,,,False,,421382.0,11.110281,49.483367
Nürnberg,Wetzendorf,90425,Schnepfenreuther Weg,5,,,,multi_family_house,1980-08-26,,,,,,,,,2.0,162.0,637.0,,,,,False,,479991.0,11.061116,49.477163000000004
Nürnberg,Trierer Straße,90469,Germersheimer Straße,165,,,,multi_family_house,1962-04-23,,,,,,,,,2.0,160.0,481.0,,,,,False,,424372.0,11.105997,49.402210000000004
Nürnberg,Glockenhof,90461,Herbartstraße,13,,,,multi_family_house,1953-08-03,,,,,,,,,10.0,605.0,573.0,,,,,False,,1219741.0,11.096255000000001,49.442212
Nürnberg,Eibach,90451,Cnopfstraße,28,,,,single_family_house,1918-10-07,,,,,,,,,1.0,127.0,579.0,,,,,False,,380514.0,11.029905,49.406935999999995
Nürnberg,Eibach,90451,Pappenheimer Straße,9,,,,single_family_house,1933-10-02,,,,,,,,,1.0,134.0,479.0,,,,,False,,413154.0,11.031498,49.396706
Nürnberg,Sündersbühl,90439,Nansenstraße,3,,,,multi_family_house,1958-03-23,,,,,,,,,7.0,631.0,710.0,,,,,False,,1237880.0,11.041946000000001,49.442822
Nürnberg,"Altstadt, St. Lorenz",90402,Ludwigstraße,45,,,,multi_family_house,1958-01-22,,,,,,,,,5.0,461.0,543.0,,,,,False,,1169903.0,11.068809,49.449020999999995
Nürnberg,Katzwang,90453,Kloster-Ebrach-Straße,33,,,,,1923-06-18,,,,,,,,,1.0,162.0,604.0,,,,,False,,461733.0,11.049076,49.361064000000006
Nürnberg,Gaismannshof,90431,Herzogenauracher Straße,67,,,,single_family_house,1954-03-20,,,,,,,,,1.0,96.0,319.0,,,,,False,,297156.0,11.032620999999999,49.452591999999996
Nürnberg,Gaismannshof,90431,Herzogenauracher Straße,120,,,,single_family_house,1995-08-21,,,,,,,,,1.0,126.0,314.0,,,,,False,,426450.0,11.032006,49.453364
Nürnberg,Wöhrd,90489,Sulzbacher Straße,63,,,,multi_family_house,1946-09-20,,,,,,,,,31.0,2315.0,1078.0,,,,,False,,7105098.0,11.09724,49.4592
Nürnberg,Sündersbühl,90439,Söderblomstraße,6,,,,multi_family_house,1969-07-23,,,,,,,,,7.0,388.0,809.0,,,,,False,,1175121.0,11.040761,49.442750999999994
Nürnberg,Fischbach,90475,Tolstoistraße,27 a,,,,single_family_house,1956-08-19,,,,,,,,,1.0,124.0,259.0,,,,,False,,350501.0,11.192146,49.417842
Nürnberg,Langwasser Südwest,90473,Schrammstraße,19,,,,single_family_house,1981-04-07,,,,,,,,,1.0,102.0,321.0,,,,,False,,346111.0,11.126985,49.395182
Nürnberg,Röthenbach Ost,90451,Krakauer Straße,5,,,,multi_family_house,2004-11-22,,,,,,,,,18.0,1841.0,679.0,,,,,False,,7109840.0,11.041102,49.420628
Nürnberg,"Altstadt, St. Sebald",90403,Grundherrngäßchen,6,,,,multi_family_house,1965-06-26,,,,,,,,,6.0,534.0,279.0,,,,,False,,1477505.0,11.078899999999999,49.457816
Nürnberg,Uhlandstraße,90408,Grolandstraße,36,,,,,1938-06-15,,,,,,,,,5.0,300.0,541.0,,,,,False,,841594.0,11.075704,49.465081000000005
Nürnberg,Schniegling,90427,Schnieglinger Straße,284 d,,,,single_family_house,1994-11-06,,,,,,,,,1.0,122.0,324.0,,,,,False,,397092.0,11.023597,49.469123
Nürnberg,Glockenhof,90461,Grenzstraße,5,,,,multi_family_house,1969-06-18,,,,,,,,,12.0,799.0,496.0,,,,,False,,2159651.0,11.09173,49.440658
Nürnberg,Bärenschanze,90429,Sielstraße,3,,,,multi_family_house,1886-05-16,,,,,,,,,8.0,570.0,308.0,,,,,False,,1300375.0,11.049707,49.453388
Nürnberg,Gostenhof,90443,Knauerstraße,9,,,,multi_family_house,1964-08-02,,,,,,,,,19.0,1263.0,547.0,,,,,False,,3228796.0,11.059402,49.445582
Nürnberg,"Altenfurt, Moorenbrunn",90475,Villacher Straße,20,,,,single_family_house,1959-09-04,,,,,,,,,1.0,121.0,308.0,,,,,False,,438200.0,11.170418,49.397218
Nürnberg,Trierer Straße,90469,Worzeldorfer Straße,97,,,,single_family_house,1931-10-12,,,,,,,,,1.0,99.0,516.0,,,,,False,,959655684.0,11.109534,49.406029000000004
Nürnberg,Gleißhammer,90480,Juttastraße,12,,,,single_family_house,1991-09-26,,,,,,,,,1.0,142.0,311.0,,,,,True,,423839.0,11.114366,49.447067000000004
Nürnberg,"Kornburg, Worzeldorf",90455,Klosterweg,85,,,,single_family_house,1970-10-08,,,,,,,,,1.0,120.0,263.0,,,,,False,,340297.0,11.074508999999999,49.375356
Nürnberg,St. Leonhard,90439,Marie-Beeg-Straße,43,,,,single_family_house,2004-03-24,,,,,,,,,1.0,128.0,292.0,,,,,False,,490759.0,11.054295,49.441568000000004
Nürnberg,Langwasser Nordost,90471,Erich-Kästner-Weg,24,,,,multi_family_house,1931-06-19,,,,,,,,,17.0,1446.0,552.0,,,,,False,,3453953.0,11.127815,49.412490999999996
Nürnberg,Wetzendorf,90425,Scheßlitzer Weg,31 a,,,,single_family_house,1983-11-16,,,,,,,,,1.0,114.0,306.0,,,,,False,,510202.0,11.058252,49.481739000000005
Nürnberg,Rangierbahnhof-Siedlung,90471,Planetenring,35,,,,single_family_house,1977-05-23,,,,,,,,,1.0,116.0,270.0,,,,,False,,356203.0,11.108332,49.413924
Nürnberg,Eberhardshof,90431,Wandererstraße,113,,,,multi_family_house,2000-02-09,,,,,,,,,3.0,235.0,525.0,,,,,False,,693814.0,11.028968,49.457084
Nürnberg,Hohe Marter,90441,Turnerheimstraße,66 c,,,,single_family_house,1979-03-04,,,,,,,,,1.0,126.0,307.0,,,,,False,,430042.0,11.046361000000001,49.42494400000001
Nürnberg,Schniegling,90427,Neumünsterer Straße,25,,,,multi_family_house,2025-04-26,,,,,,,,,2.0,262.0,476.0,,,,,False,,999835.0,11.033465999999999,49.470275
Nürnberg,Zerzabelshof,90480,Herrnscheidstraße,26,,,,multi_family_house,1948-06-13,,,,,,,,,4.0,418.0,907.0,,,,,False,,1208296.0,11.127804,49.44793799999999
Nürnberg,Gostenhof,90443,Knauerstraße,27,,,,multi_family_house,2003-03-13,,,,,,,,,10.0,635.0,500.0,,,,,False,,1890598.0,11.056737,49.44578100000001
Nürnberg,St. Jobst,90491,Grimmstraße,9,,,,single_family_house,1960-01-11,,,,,,,,,1.0,144.0,719.0,,,,,False,,553515.0,11.125591,49.467786000000004
Nürnberg,Eibach,90451,Lauinger Straße,10,,,,,1945-08-05,,,,,,,,,2.0,220.0,628.0,,,,,True,,586138.0,11.03357,49.396145
Nürnberg,Veilhof,90489,Felseckerstraße,31,,,,multi_family_house,1937-02-08,,,,,,,,,10.0,515.0,258.0,,,,,False,,1513747.0,11.099161,49.457695
Nürnberg,Mögeldorf,90482,Volker-Coiter-Straße,18,,,,single_family_house,1949-01-02,,,,,,,,,1.0,128.0,272.0,,,,,False,,522438.0,11.13836,49.465939
Nürnberg,"Altenfurt, Moorenbrunn",90475,Moorenbrunner Straße,14,,,,single_family_house,1983-10-05,,,,,,,,,1.0,152.0,619.0,,,,,False,,611545.0,11.173318,49.3951
Nürnberg,Laufamholz,90482,Hofreuthackerstraße,45,,,,single_family_house,2024-06-24,,,,,,,,,1.0,146.0,264.0,,,,,False,,597103.0,11.154150999999999,49.461588000000006
Nürnberg,St. Johannis,90419,Großweidenmühlstraße,29,,,,multi_family_house,1986-05-27,,,,,,,,,3.0,183.0,697.0,,,,,False,,672074.0,11.061333,49.45703
Nürnberg,Bärenschanze,90429,Kernstraße,41,,,,multi_family_house,1955-04-21,,,,,,,,,10.0,592.0,336.0,,,,,False,,1570792.0,11.054049,49.448258
Nürnberg,Erlenstegen,90491,Volbehrstraße,5 d,,,,single_family_house,1908-03-09,,,,,,,,,1.0,152.0,324.0,,,,,False,,588549.0,11.122009,49.476298
Nürnberg,St. Leonhard,90439,Rothenburger Straße,101U,,,,,1968-07-27,,,,,,,,,1.0,144.0,308.0,,,,,False,,422778.0,11.055445,49.444177999999994
Nürnberg,Maxfeld,90409,Am Stadtpark,101,,,,multi_family_house,1949-07-15,,,,,,,,,6.0,282.0,626.0,,,,,False,,879414.0,11.091749,49.468162
Nürnberg,Gaismannshof,90431,Stübacher Straße,101,,,,single_family_house,2014-10-25,,,,,,,,,1.0,104.0,322.0,,,,,False,,527050.0,11.030606,49.451417
Nürnberg,St. Leonhard,90439,Marie-Beeg-Straße,2,,,,multi_family_house,2012-06-27,,,,,,,,,17.0,1236.0,526.0,,,,,False,,4875008.0,11.052353,49.441633
Nürnberg,Buchenbühl,90411,Rabensteinweg,39,,,,single_family_house,1943-02-23,,,,,,,,,1.0,123.0,269.0,,,,,False,,313515.0,11.104065,49.507698
Nürnberg,Reichelsdorf,90453,Pilgramstraße,16,,,,single_family_house,1983-10-07,,,,,,,,,1.0,113.0,345.0,,,,,False,,375243.0,11.032029,49.376946999999994
Nürnberg,Gaismannshof,90431,Gaismannshofstraße,25 a,,,,single_family_house,1946-11-01,,,,,,,,,1.0,126.0,276.0,,,,,False,,349514.0,11.027475,49.449940000000005
Nürnberg,Galgenhof,90459,Aufseßplatz,19U,,,,multi_family_house,1951-02-23,,,,,,,,,7.0,577.0,544.0,,,,,False,,1729729.0,11.080044999999998,49.441451
Nürnberg,Schniegling,90427,Ratzeburger Straße,4,,,,single_family_house,1989-07-02,,,,,,,,,1.0,105.0,276.0,,,,,False,,396569.0,11.034441000000001,49.470117
Nürnberg,Gugelstraße,90461,Sperberstraße,32,,,,multi_family_house,1896-03-05,,,,,,,,,11.0,922.0,307.0,,,,,False,,2352987.0,11.080852,49.431734
Nürnberg,Ziegelstein,90411,Uttenreuther Straße,58,,,,single_family_house,1931-01-02,,,,,,,,,1.0,104.0,324.0,,,,,False,,328601.0,11.116504,49.487027
Nürnberg,Erlenstegen,90491,Volbehrstraße,5 c,,,,single_family_house,1922-10-08,,,,,,,,,1.0,142.0,314.0,,,,,False,,588072.0,11.121893,49.476253
Nürnberg,Gaismannshof,90431,Leyher Straße,80 a,,,,multi_family_house,1978-07-10,,,,,,,,,1.0,75.0,337.0,,,,,False,,207806.0,11.025437,49.452484
Nürnberg,Maxfeld,90409,Mohnstraße,17,,,,single_family_house,1980-11-06,,,,,,,,,1.0,78.0,504.0,,,,,False,,388663.0,11.088399,49.468808
Nürnberg,Gleißhammer,90480,Spiegelauer Straße,44,,,,single_family_house,1983-04-23,,,,,,,,,1.0,135.0,327.0,,,,,False,,517327.0,11.119269,49.450649999999996
Nürnberg,Wetzendorf,90425,Karl-May-Weg,19,,,,multi_family_house,2008-08-21,,,,,,,,,10.0,959.0,932.0,,,,,False,,3263616.0,11.058897,49.47347600000001
Nürnberg,St. Jobst,90491,Tauroggenstraße,20,,,,single_family_house,1944-04-08,,,,,,,,,1.0,109.0,298.0,,,,,False,,449733.0,11.107783000000001,49.461684
Nürnberg,Gleißhammer,90480,Fallrohrstraße,25 b,,,,single_family_house,1968-04-05,,,,,,,,,1.0,116.0,332.0,,,,,False,,408960.0,11.118814,49.447284
Nürnberg,Himpfelshof,90429,Bärenschanzstraße,11,,,,multi_family_house,1917-04-03,,,,,,,,,7.0,499.0,281.0,,,,,False,,1448672.0,11.060636,49.450591
Nürnberg,Wetzendorf,90425,Reuthwiesenstraße,15,,,,multi_family_house,1971-01-13,,,,,,,,,7.0,549.0,491.0,,,,,False,,1418453.0,11.055,49.479273
Nürnberg,"Kornburg, Worzeldorf",90455,Paintweg,18,,,,single_family_house,1963-05-01,,,,,,,,,1.0,115.0,305.0,,,,,False,,286097.0,11.101769,49.357461
Nürnberg,Katzwang,90453,Grillparzerstraße,11,,,,multi_family_house,1990-07-14,,,,,,,,,3.0,245.0,521.0,,,,,False,,767675.0,11.044179,49.36767
Nürnberg,Trierer Straße,90469,Saarbrückener Straße,73,,,,single_family_house,1950-01-12,,,,,,,,,1.0,106.0,591.0,,,,,False,,376671.0,11.086284000000001,49.398603
Nürnberg,"Kornburg, Worzeldorf",90455,Emil-Nolde-Straße,5,,,,multi_family_house,1982-04-05,,,,,,,,,15.0,1136.0,916.0,,,,,False,,3518737.0,11.084614,49.37003
Nürnberg,Guntherstraße,90461,Rankestraße,62,,,,multi_family_house,1937-02-12,,,,,,,,,2.0,266.0,471.0,,,,,False,,617763.0,11.099675,49.434633999999996
Nürnberg,Langwasser Südost,90473,Bunzlauer Straße,31,,,,single_family_house,1973-01-20,,,,,,,,,1.0,136.0,696.0,,,,,False,,473301.0,11.148149,49.408327
Nürnberg,Tullnau,90402,Teutonenstraße,67 a,,,,single_family_house,2011-02-12,,,,,,,,,1.0,117.0,618.0,,,,,False,,690191.0,11.109546,49.455097
Nürnberg,Laufamholz,90482,Treufer Straße,7,,,,,1947-03-17,,,,,,,,,2.0,315.0,758.0,,,,,False,,743574.0,11.168004999999999,49.463979
Nürnberg,Gleißhammer,90480,Fallrohrstraße,8,,,,multi_family_house,1913-03-18,,,,,,,,,3.0,240.0,299.0,,,,,False,,674103.0,11.118976,49.446678
Nürnberg,Laufamholz,90482,Gläsleinsackerweg,10,,,,single_family_house,1994-06-06,,,,,,,,,1.0,115.0,302.0,,,,,False,,533594.0,11.153673,49.460629000000004
Nürnberg,St. Leonhard,90439,Gernotstraße,55,,,,multi_family_house,1953-01-22,,,,,,,,,10.0,754.0,673.0,,,,,False,,1607424.0,11.042819000000001,49.440304999999995
Nürnberg,Gaismannshof,90431,Sankt-Gallen-Ring,23,,,,single_family_house,2005-04-12,,,,,,,,,1.0,143.0,287.0,,,,,False,,478723.0,11.026530999999999,49.443104999999996
Nürnberg,Röthenbach Ost,90449,Burgsalacher Straße,28,,,,single_family_house,1988-04-09,,,,,,,,,1.0,129.0,267.0,,,,,False,,351261.0,11.034360000000001,49.418807
Nürnberg,Almoshof,90427,Lohäckerstraße,87,,,,single_family_house,1928-02-11,,,,,,,,,1.0,107.0,573.0,,,,,False,,464827.0,11.068883,49.487814
Nürnberg,Thon,90425,Oldenburger Straße,3,,,,multi_family_house,1988-02-16,,,,,,,,,12.0,1215.0,724.0,,,,,False,,3781566.0,11.067938,49.477707
Nürnberg,"Altenfurt, Moorenbrunn",90475,Klagenfurter Straße,35,,,,single_family_house,1968-10-11,,,,,,,,,1.0,100.0,331.0,,,,,False,,300793.0,11.172661,49.399118
Nürnberg,Hummelstein,90461,Kunostraße,25,,,,single_family_house,1902-08-08,,,,,,,,,1.0,86.0,342.0,,,,,False,,275768.0,11.091498000000001,49.430829
Nürnberg,Reichelsdorf,90453,Beilngrieser Straße,69,,,,single_family_house,1957-01-02,,,,,,,,,1.0,112.0,303.0,,,,,True,,321620.0,11.038243000000001,49.383334
Nürnberg,Maiach,90451,Illerstraße,40,,,,single_family_house,1966-09-26,,,,,,,,,1.0,137.0,253.0,,,,,False,,437150.0,11.057459,49.406938999999994
Nürnberg,Eibach,90451,Hafenstraße,47,,,,multi_family_house,1987-03-16,,,,,,,,,2.0,139.0,264.0,,,,,False,,394706.0,11.039660000000001,49.407918
Nürnberg,St. Leonhard,90439,Schlachthofstraße,8A,,,,,1995-10-24,,,,,,,,,1.0,88.0,131.0,,,,,False,,384758.0,11.057129,49.442351
Nürnberg,St. Jobst,90491,Thumenberger Weg,65,,,,multi_family_house,1947-01-12,,,,,,,,,6.0,436.0,738.0,,,,,False,,1472338.0,11.123638999999999,49.467813
Nürnberg,Eibach,90451,Pappenheimer Straße,3,,,,multi_family_house,1929-04-18,,,,,,,,,4.0,231.0,700.0,,,,,False,,750548.0,11.03139,49.396958000000005
Nürnberg,Gostenhof,90443,Barbiergasse,17,,,,multi_family_house,1896-02-22,,,,,,,,,1.0,92.0,332.0,,,,,False,,228936.0,11.066221,49.445992
Nürnberg,Maxfeld,90409,Am Stadtpark,112,,,,multi_family_house,2000-11-01,,,,,,,,,24.0,1805.0,925.0,,,,,False,,6325047.0,11.092578,49.468425
Nürnberg,Gebersdorf,90449,Püttlachweg,19,,,,single_family_house,1974-11-22,,,,,,,,,1.0,124.0,337.0,,,,,False,,324927.0,11.010421000000001,49.427738
Nürnberg,Gleißhammer,90480,Ursulastraße,11,,,,single_family_house,1988-08-07,,,,,,,,,1.0,127.0,257.0,,,,,False,,382863.0,11.115588,49.448159
Nürnberg,Eibach,90451,Forstweiherstraße,25,,,,multi_family_house,2024-05-27,,,,,,,,,4.0,308.0,622.0,,,,,False,,1184874.0,11.039259999999999,49.404977
Nürnberg,Ziegelstein,90411,Wissmannstraße,63,,,,,1935-03-03,,,,,,,,,18.0,993.0,800.0,,,,,False,,2702188.0,11.111777,49.481753
Nürnberg,Mögeldorf,90482,Kapferstraße,10,,,,multi_family_house,1900-05-07,,,,,,,,,2.0,260.0,337.0,,,,,False,,810635.0,11.136166999999999,49.467265999999995
Nürnberg,Ziegelstein,90411,Betzensteiner Straße,74,,,,multi_family_house,1974-11-09,,,,,,,,,3.0,232.0,281.0,,,,,False,,637260.0,11.117523,49.483129
Nürnberg,Gaismannshof,90431,Herzogenauracher Straße,18,,,,multi_family_house,1919-08-19,,,,,,,,,2.0,218.0,566.0,,,,,False,,1036275104.0,11.036111,49.451885999999995
Nürnberg,St. Leonhard,90439,Rothenburger Straße,156,,,,multi_family_house,1990-04-06,,,,,,,,,17.0,1177.0,803.0,,,,,False,,3080716.0,11.049387999999999,49.442327
Nürnberg,Dutzendteich,90478,Herzogstraße,4,,,,,1893-10-01,,,,,,,,,12.0,939.0,472.0,,,,,False,,2512390.0,11.118121,49.435798999999996
Nürnberg,Mögeldorf,90482,Hammerstraße,14,,,,multi_family_house,1886-07-05,,,,,,,,,5.0,352.0,281.0,,,,,False,,944571.0,11.137743,49.463972
Nürnberg,Gaismannshof,90431,Paracelsusstraße,139,,,,single_family_house,1939-07-08,,,,,,,,,1.0,113.0,508.0,,,,,False,,441081.0,11.024863999999999,49.444467
Nürnberg,Wetzendorf,90425,Kölner Straße,30,,,,multi_family_house,1978-07-12,,,,,,,,,22.0,1266.0,832.0,,,,,False,,4460822.0,11.059084,49.468777
Nürnberg,"Altstadt, St. Lorenz",90403,An der Fleischbrücke,1,,,,multi_family_house,1993-07-01,,,,,,,,,2.0,312.0,551.0,,,,,False,,1219399.0,11.07714,49.452642999999995
Nürnberg,Zerzabelshof,90480,Aussiger Platz,1,,,,multi_family_house,1927-07-08,,,,,,,,,3.0,237.0,615.0,,,,,False,,644350.0,11.124389,49.443611
Nürnberg,Schmausenbuckstraße,90480,Dientzenhoferstraße,54,,,,multi_family_house,1988-07-04,,,,,,,,,7.0,650.0,765.0,,,,,False,,1858166.0,11.128366,49.453878
Nürnberg,St. Jobst,90491,Ludtringstraße,12,,,,single_family_house,2005-07-21,,,,,,,,,1.0,106.0,338.0,,,,,False,,655094.0,11.107996,49.460216
Nürnberg,Reichelsdorf,90453,Walter-Flex-Straße,79,,,,single_family_house,1942-11-27,,,,,,,,,1.0,108.0,307.0,,,,,False,,278021.0,11.040246,49.39058300000001
Nürnberg,Zerzabelshof,90480,Rohrmattenstraße,11,,,,multi_family_house,1920-04-11,,,,,,,,,4.0,506.0,677.0,,,,,False,,1360828.0,11.12937,49.444524
Nürnberg,Buchenbühl,90411,Nuschelbergweg,2 f,,,,single_family_house,1950-10-19,,,,,,,,,1.0,92.0,557.0,,,,,False,,318815.0,11.106368,49.504642000000004
Nürnberg,"Altstadt, St. Sebald",90403,Sieben Zeilen,42,,,,multi_family_house,1963-02-02,,,,,,,,,2.0,120.0,556.0,,,,,False,,448595.0,11.082119,49.458396
Nürnberg,Röthenbach West,90449,Creglinger Straße,40,,,,,1989-03-27,,,,,,,,,7.0,559.0,688.0,,,,,False,,2194158.0,11.031994,49.423587
Nürnberg,Schmausenbuckstraße,90480,Dientzenhoferstraße,6 b,,,,,1965-01-09,,,,,,,,,1.0,96.0,299.0,,,,,False,,410161.0,11.123491,
Nürnberg,Gleißhammer,90480,Schöpfstraße,27,,,,multi_family_house,1981-04-17,,,,,,,,,27.0,1677.0,707.0,,,,,False,,5997632.0,11.119822,49.441646
Nürnberg,Langwasser Nordost,90471,Tucholskystraße,24,,,,multi_family_house,1993-04-19,,,,,,,,,1.0,84.0,581.0,,,,,False,,304729.0,11.134141,49.414513
Nürnberg,Gartenstadt,90469,Paumannstraße,50,,,,single_family_house,1935-03-12,,,,,,,,,1.0,100.0,288.0,,,,,False,,292702.0,11.079154,49.412373
Nürnberg,Wetzendorf,90425,Gerhard-von-Rad-Straße,12,,,,,2026-05-22,,,,,,,,,1.0,151.0,337.0,,,,,False,,666060.0,11.056942999999999,49.472164
Nürnberg,Katzwang,90453,Harrlacher Straße,8,,,,single_family_house,1962-04-17,,,,,,,,,1.0,132.0,571.0,,,,,False,,343018.0,11.041224,49.371794
Nürnberg,Katzwang,90455,Strawinskystraße,19,,,,multi_family_house,2008-02-03,,,,,,,,,10.0,922.0,1153.0,,,,,False,,2263067.0,11.063565,49.348214
Nürnberg,Gaismannshof,90431,Steinmetzanlage,26,,,,single_family_house,1932-05-24,,,,,,,,,1.0,139.0,273.0,,,,,False,,389663.0,11.032175,49.442519000000004
Nürnberg,Sandberg ,90419,Steinstraße,9,,,,multi_family_house,1994-10-23,,,,,,,,,10.0,826.0,331.0,,,,,False,,3185417.0,11.05562,49.45768500000001
Nürnberg,St. Johannis,90419,Neutorgraben,17,,,,multi_family_house,1961-11-04,,,,,,,,,7.0,396.0,858.0,,,,,False,,1449303.0,11.072466,49.457852
Nürnberg,Gugelstraße,90461,Sperberstraße,7,,,,multi_family_house,1973-03-19,,,,,,,,,9.0,628.0,336.0,,,,,False,,1289072.0,11.078222,49.431164
Nürnberg,Reichelsdorf,90453,Kötzlerstraße,34,,,,multi_family_house,1988-04-27,,,,,,,,,2.0,234.0,267.0,,,,,True,,771390.0,11.034621000000001,49.381420999999996
Nürnberg,Gugelstraße,90459,Markgrafenstraße,10,,,,multi_family_house,1913-03-19,,,,,,,,,9.0,749.0,298.0,,,,,False,,1689450.0,11.075906999999999,49.433775000000004
Nürnberg,Steinbühl,90443,Ackerstraße,10,,,,multi_family_house,2013-02-24,,,,,,,,,13.0,1000.0,603.0,,,,,False,,3800045.0,11.064923,49.440596
Nürnberg,Zerzabelshof,90480,Beim Grönacker,7,,,,multi_family_house,1947-07-09,,,,,,,,,7.0,418.0,776.0,,,,,False,,1550318.0,11.126424000000002,49.446452
Nürnberg,Katzwang,90453,Gubener Straße,37,,,,single_family_house,1991-07-22,,,,,,,,,1.0,101.0,338.0,,,,,False,,362475.0,11.057682,49.362787999999995
Nürnberg,Großreuth b. Schweinau,90431,Tillypark,145,,,,single_family_house,1990-11-26,,,,,,,,,1.0,103.0,321.0,,,,,True,,441005.0,11.033501000000001,49.435705999999996
Nürnberg,Schweinau,90441,Waldaustraße,28,,,,multi_family_house,1970-08-18,,,,,,,,,3.0,212.0,275.0,,,,,False,,,11.052856,49.433468
Nürnberg,Veilhof,90489,Wieselerstraße,3,,,,,2015-11-03,,,,,,,,,1.0,67.0,1137.0,,,,,False,,484802.0,11.099129999999999,49.463674999999995
Nürnberg,Buchenbühl,90411,Märzenweg,33,,,,multi_family_house,1965-05-15,,,,,,,,,6.0,323.0,630.0,,,,,False,,1095744.0,11.105901,49.506569000000006
Nürnberg,Mooshof,90411,Edmund-Rumpler-Weg,15,,,,single_family_house,1949-03-21,,,,,,,,,1.0,120.0,338.0,,,,,False,,364393.0,11.101379999999999,49.485453
Nürnberg,Nürnberg                  ,90453,Isolanistraße,2,,,,multi_family_house,1982-02-20,,,,,,,,,3.0,269.0,708.0,,,,,False,,698546.0,11.021206,49.374191
Nürnberg,Ludwigsfeld,90478,Zerzabelshofstraße,13,,,,single_family_house,1899-03-02,,,,,,,,,1.0,99.0,334.0,,,,,False,,327016.0,11.107649,49.445468
Nürnberg,Zerzabelshof,90480,Kronstädter Straße,12,,,,single_family_house,1956-02-24,,,,,,,,,1.0,114.0,326.0,,,,,False,,433042.0,11.125269,49.438776
Nürnberg,Erlenstegen,90491,Händelstraße,14,,,,,1975-01-14,,,,,,,,,6.0,572.0,772.0,,,,,False,,2061917.0,11.123517999999999,
Nürnberg,Buch ,90427,Höfleser Hauptstraße,42 a,,,,single_family_house,1990-09-18,,,,,,,,,1.0,95.0,309.0,,,,,False,,518148.0,11.033341,49.490807000000004
Nürnberg,Marienberg ,90411,Frankenburgerstraße,5,,,,multi_family_house,1961-11-06,,,,,,,,,3.0,213.0,290.0,,,,,False,,760782.0,11.103452,49.476130000000005
Nürnberg,"Altenfurt, Moorenbrunn",90475,Altenfurter Straße,81,,,,single_family_house,1926-04-16,,,,,,,,,1.0,135.0,589.0,,,,,False,,411910.0,11.177285,49.40254000000001
Nürnberg,Uhlandstraße,90408,Georg-Eberlein-Straße,25,,,,multi_family_house,1984-05-15,,,,,,,,,9.0,814.0,787.0,,,,,False,,3228612.0,11.079777,49.467469
Nürnberg,Thon,90425,Lohestraße,43,,,,single_family_house,1956-01-02,,,,,,,,,1.0,113.0,273.0,,,,,False,,365818.0,11.070875,49.478343
Nürnberg,Glockenhof,90461,Nibelungenstraße,15,,,,,1907-04-20,,,,,,,,,11.0,724.0,611.0,,,,,False,,2057048.0,11.097878999999999,49.439463
Nürnberg,Gibitzenhof,90443,Dianaplatz,5,,,,multi_family_house,1913-06-05,,,,,,,,,16.0,929.0,520.0,,,,,False,,1947490.0,11.065819,49.42876200000001
Nürnberg,Schmausenbuckstraße,90480,Dientzenhoferstraße,11 a,,,,,1967-01-13,,,,,,,,,1.0,118.0,254.0,,,,,False,,489413.0,11.124907,49.452954000000005
Nürnberg,Gaismannshof,90431,Rothenburger Straße,276,,,,single_family_house,1937-09-27,,,,,,,,,1.0,142.0,265.0,,,,,False,,362752.0,11.033006,49.441307
Nürnberg,Trierer Straße,90469,Friedrichsthaler Straße,42,,,,single_family_house,1943-03-26,,,,,,,,,1.0,100.0,599.0,,,,,False,,373170.0,11.086227,49.397994
Nürnberg,Mögeldorf,90482,Bühlstraße,5,,,,multi_family_house,2004-10-25,,,,,,,,,5.0,516.0,880.0,,,,,False,,2236707.0,11.136689,49.464529
Nürnberg,Reichelsdorf,90453,Walter-Flex-Straße,67,,,,multi_family_house,1926-02-13,,,,,,,,,1.0,70.0,301.0,,,,,False,,249610.0,11.03917,49.390984
Nürnberg,Katzwang,90453,Georg-Stefan-Straße,18 a,,,,,2007-07-02,,,,,,,,,1.0,114.0,525.0,,,,,False,,515996.0,11.046769,49.365696
Nürnberg,Eibach,90451,Fritz-Weidner-Straße,61,,,,multi_family_house,1917-02-18,,,,,,,,,2.0,255.0,630.0,,,,,False,,740289.0,11.029929000000001,49.396789
Nürnberg,Uhlandstraße,90408,Atlantastraße,53,,,,single_family_house,2025-11-15,,,,,,,,,1.0,140.0,344.0,,,,,False,,563546.0,11.076629,49.467565
Nürnberg,Fischbach,90475,Pellergasse,13,,,,single_family_house,1977-01-11,,,,,,,,,1.0,126.0,616.0,,,,,False,,472278.0,11.192238,49.422461999999996
Nürnberg,Katzwang,90453,Am Weißensee,1 i,,,,single_family_house,2018-09-25,,,,,,,,,1.0,137.0,288.0,,,,,False,,474253.0,11.044994999999998,49.369592
Nürnberg,Eibach,90451,Castellstraße,72 c,,,,single_family_house,1979-07-06,,,,,,,,,1.0,114.0,665.0,,,,,False,,515825.0,11.027935000000001,49.408933
Nürnberg,Gaismannshof,90431,Elsa-Brändström-Straße,1,,,,multi_family_house,1983-05-17,,,,,,,,,6.0,460.0,255.0,,,,,False,,1487178.0,11.031507000000001,49.440909999999995
Nürnberg,Nürnberg                  ,90453,Lohhofer Straße,37 h,,,,single_family_house,2018-02-21,,,,,,,,,1.0,145.0,870.0,,,,,False,,595337.0,11.024681,49.389605
Nürnberg,"Altenfurt, Moorenbrunn",90475,Gutshofstraße,58,,,,single_family_house,1981-02-26,,,,,,,,,1.0,101.0,300.0,,,,,False,,,11.170908,49.396443000000005
Nürnberg,Gaismannshof,90431,Sankt-Gallen-Ring,142,,,,single_family_house,1988-11-06,,,,,,,,,1.0,128.0,316.0,,,,,False,,454749.0,11.02901,49.443397
Nürnberg,Boxdorf,90427,Am Sportplatz,2 a,,,,,1980-07-16,,,,,,,,,1.0,121.0,603.0,,,,,False,,436290.0,11.030767,49.5164
Nürnberg,Pirckheimerstraße,90408,Friedrichstraße,17,,,,multi_family_house,1957-03-10,,,,,,,,,3.0,285.0,659.0,,,,,False,,918779.0,11.080724,
Nürnberg,Bärenschanze,90429,Austraße,24,,,,multi_family_house,1909-06-14,,,,,,,,,5.0,315.0,333.0,,,,,False,,978790.0,11.054072999999999,49.44777
Nürnberg,Eibach,90451,Am Rednitzhang,12,,,,multi_family_house,1985-11-11,,,,,,,,,3.0,245.0,657.0,,,,,False,,560326.0,11.028979,49.404755
Nürnberg,Pirckheimerstraße,90409,Löbleinstraße,5,,,,multi_family_house,1943-06-22,,,,,,,,,14.0,,567.0,,,,,False,,3142770.0,11.084392,49.461991
Nürnberg,Eibach,90451,Staudenweg,38,,,,single_family_house,1895-02-08,,,,,,,,,1.0,119.0,471.0,,,,,False,,307865.0,11.030429999999999,49.401485
Nürnberg,"Altenfurt, Moorenbrunn",90475,Habsburgerstraße,47 b,,,,single_family_house,1990-10-05,,,,,,,,,1.0,105.0,265.0,,,,,False,,1031361515.0,11.173644999999999,49.403732
Nürnberg,Fischbach,90475,Am Brand,12,,,,single_family_house,2000-08-17,,,,,,,,,1.0,155.0,797.0,,,,,False,,683132.0,11.181809,49.426425
Nürnberg,Erlenstegen,90491,Erlenstegenstraße,86,,,,multi_family_house,1972-01-07,,,,,,,,,4.0,316.0,779.0,,,,,False,,1078750.0,11.135326000000001,49.471688
Nürnberg,Tullnau,90402,Teutonenstraße,18,,,,multi_family_house,1932-09-03,,,,,,,,,4.0,170.0,625.0,,,,,False,,405867.0,11.109687,49.453046
Nürnberg,Gleißhammer,90480,Fallrohrstraße,27 a,,,,,1983-05-12,,,,,,,,,1.0,87.0,333.0,,,,,False,,,11.119363,49.44739700000001
Nürnberg,Maxfeld,90408,Rollnerstraße,48,,,,multi_family_house,1980-04-02,,,,,,,,,9.0,637.0,309.0,,,,,False,,2112158.0,11.082489,49.463068
Nürnberg,Hasenbuck,90461,Sterzinger Straße,11,,,,multi_family_house,1959-10-14,,,,,,,,,4.0,445.0,863.0,,,,,False,,1026372.0,11.091769000000001,49.429367
Nürnberg,Pirckheimerstraße,90408,Reuterstraße,8,,,,multi_family_house,1958-09-11,,,,,,,,,9.0,712.0,262.0,,,,,False,,2160678.0,11.083276999999999,49.461093
Nürnberg,Nürnberg                  ,90453,Waldwinkel,38,,,,single_family_house,1984-09-23,,,,,,,,,1.0,149.0,615.0,,,,,False,,538541.0,11.025238,49.371603
Nürnberg,"Altenfurt, Moorenbrunn",90475,Kufsteiner Straße,15,,,,,1982-06-01,,,,,,,,,1.0,99.0,328.0,,,,,False,,338382.0,11.171448999999999,49.39766900000001
Nürnberg,"Altenfurt, Moorenbrunn",90475,Wittelsbacherstraße,82 a,,,,single_family_house,1957-02-04,,,,,,,,,1.0,108.0,304.0,,,,,False,,401441.0,11.175743,49.40678
Nürnberg,Zerzabelshof,90480,Kronstädter Straße,2,,,,single_family_house,1947-06-10,,,,,,,,,1.0,117.0,294.0,,,,,False,,358584.0,11.125369000000001,49.43905500000001
Nürnberg,Laufamholz,90482,Laufamholzstraße,334,,,,single_family_house,1918-03-20,,,,,,,,,1.0,143.0,688.0,,,,,False,,495766.0,11.17261,49.468720000000005
Nürnberg,Laufamholz,90482,Schnaittacher Straße,14,,,,single_family_house,2024-01-05,,,,,,,,,1.0,161.0,591.0,,,,,False,,599895.0,11.171536000000001,49.467442
Nürnberg,Brunn,90475,Keilbrunnenweg,13,,,,single_family_house,1955-09-06,,,,,,,,,1.0,162.0,608.0,,,,,False,,357170.0,11.256516999999999,49.432430000000004
Nürnberg,Veilhof,90489,Ludwig-Feuerbach-Straße,67,,,,multi_family_house,1983-01-20,,,,,,,,,14.0,956.0,590.0,,,,,False,,3359168.0,11.101211,49.460858
Nürnberg,"Kornburg, Worzeldorf",90455,Memminger Straße,1,,,,multi_family_house,1997-10-11,,,,,,,,,5.0,336.0,563.0,,,,,False,,1007433.0,11.075713,49.367990000000006
Nürnberg,Laufamholz,90482,Sittenbacher Straße,31,,,,,1977-01-21,,,,,,,,,1.0,131.0,269.0,,,,,False,,452401.0,11.175475,49.465067
Nürnberg,Schleifweg,90409,Merianstraße,35,,,,,1964-11-20,,,,,,,,,1.0,143.0,293.0,,,,,False,,481370.0,11.098871,49.472591
Nürnberg,Schoppershof,90491,Am Nordostbahnhof,76,,,,,2003-01-17,,,,,,,,,1.0,145.0,281.0,,,,,False,,598441.0,11.108033,49.473735999999995
Nürnberg,"Kornburg, Worzeldorf",90455,Lohmeierstraße,55,,,,single_family_house,1968-02-03,,,,,,,,,1.0,128.0,309.0,,,,,False,,434478.0,11.067644,49.37884
Nürnberg,Großgründlach,90427,Großgründlacher Hauptstraße,9,,,,multi_family_house,1929-05-01,,,,,,,,,2.0,320.0,742.0,,,,,False,,763536.0,11.010756,49.52731
Nürnberg,Nürnberg                  ,90453,Schürstabstraße,9,,,,single_family_house,1967-04-02,,,,,,,,,1.0,110.0,312.0,,,,,False,,313063.0,11.020982,49.379167
Nürnberg,Uhlandstraße,90408,Burgkmairstraße,13,,,,,1938-02-21,,,,,,,,,8.0,589.0,605.0,,,,,False,,1997272.0,11.074504000000001,49.469068
Nürnberg,St. Jobst,90491,Dr.-Carlo-Schmid-Straße,196,,,,multi_family_house,1991-10-01,,,,,,,,,3.0,469.0,265.0,,,,,False,,1611586.0,11.123708,49.462559
Nürnberg,Hohe Marter,90441,Olivenweg,26,,,,single_family_house,1961-10-17,,,,,,,,,1.0,165.0,311.0,,,,,False,,455521.0,11.031407999999999,49.426241
Nürnberg,Zerzabelshof,90480,Passauer Straße,54,,,,multi_family_house,1955-08-20,,,,,,,,,9.0,617.0,555.0,,,,,False,,1473794.0,11.123214,49.449101
Nürnberg,"Kornburg, Worzeldorf",90455,Albrecht-Achilles-Straße,4 b,,,,,1977-06-16,,,,,,,,,1.0,108.0,288.0,,,,,False,,326375.0,11.076815999999999,49.375061
Nürnberg,"Kornburg, Worzeldorf",90455,An der Schwedenschanze,40,,,,single_family_house,1941-10-26,,,,,,,,,1.0,162.0,642.0,,,,,False,,475468.0,11.070581,49.375232
Nürnberg,Galgenhof,90459,Paradiesstraße,17,,,,multi_family_house,1951-01-20,,,,,,,,,4.0,230.0,280.0,,,,,False,,700275.0,11.077069,49.442971
Nürnberg,Langwasser Nordost,90471,Tucholskystraße,82,,,,multi_family_house,1973-06-12,,,,,,,,,1.0,70.0,562.0,,,,,False,,255070.0,11.131899,49.41417
Nürnberg,Erlenstegen,90491,Oedenberger Straße,162,,,,multi_family_house,1972-02-26,,,,,,,,,14.0,1250.0,856.0,,,,,False,,4675183.0,11.119564,49.473527
Nürnberg,Boxdorf,90427,Boxdorfer Hauptstraße,41,,,,multi_family_house,1998-03-25,,,,,,,,,4.0,351.0,288.0,,,,,False,,1396985.0,11.029091,49.515915
Nürnberg,Reichelsdorf,90453,Pilgramstraße,21 a,,,,single_family_house,1983-11-23,,,,,,,,,1.0,132.0,323.0,,,,,False,,402583.0,11.032182,49.376538
Nürnberg,Laufamholz,90482,Laufamholzstraße,324,,,,single_family_house,2000-06-24,,,,,,,,,1.0,159.0,614.0,,,,,False,,636237.0,11.170672999999999,49.468683999999996
Nürnberg,St. Jobst,90491,Bülowstraße,24,,,,multi_family_house,1995-11-09,,,,,,,,,2.0,208.0,504.0,,,,,False,,600964.0,11.118580999999999,49.466677
Nürnberg,Bielingplatz,90419,Hufelandstraße,128,,,,single_family_house,1957-07-25,,,,,,,,,1.0,115.0,309.0,,,,,False,,465238.0,11.064273,49.46766500000001
Nürnberg,Fischbach,90475,Leskowstraße,11,,,,single_family_house,1968-05-13,,,,,,,,,1.0,105.0,348.0,,,,,False,,314001.0,11.190222,49.41783
Nürnberg,Trierer Straße,90469,Leerstetter Straße,18,,,,multi_family_house,1945-05-02,,,,,,,,,2.0,285.0,611.0,,,,,False,,841611.0,11.105768000000001,49.404213
Nürnberg,Röthenbach West,90449,Hesselbergring,35,,,,multi_family_house,1963-11-13,,,,,,,,,9.0,574.0,670.0,,,,,False,,1861674.0,11.018232,49.422496
Nürnberg,Sandberg ,90419,Fleischmannstraße,38,,,,multi_family_house,1966-11-21,,,,,,,,,11.0,640.0,771.0,,,,,False,,1463295.0,11.054323,49.46402500000001
Nürnberg,"Altenfurt, Moorenbrunn",90475,Habsburgerstraße,20,,,,multi_family_house,2003-11-14,,,,,,,,,4.0,247.0,545.0,,,,,False,,884319.0,11.169305,49.407511
Nürnberg,Fischbach,90475,Bärenbühlgraben,18 a,,,,single_family_house,1985-08-20,,,,,,,,,1.0,127.0,596.0,,,,,False,,521491.0,11.19019,49.426229
Nürnberg,Gostenhof,90443,Elsnerstraße,9,,,,multi_family_house,1976-05-01,,,,,,,,,6.0,613.0,472.0,,,,,False,,1742060.0,11.062981,49.446701
Nürnberg,"Altstadt, St. Lorenz",90402,Breite Gasse,79,,,,,1952-03-18,,,,,,,,,6.0,547.0,337.0,,,,,False,,1956844.0,11.072297,49.450027
Nürnberg,Bielingplatz,90419,Mesmerstraße,8,,,,multi_family_house,1971-05-08,,,,,,,,,3.0,252.0,692.0,,,,,True,,673828.0,11.061340999999999,49.465383
Nürnberg,Schleifweg,90409,Daumerstraße,19,,,,single_family_house,1984-07-09,,,,,,,,,1.0,114.0,338.0,,,,,False,,465334.0,11.090156,49.472144
Nürnberg,Großgründlach,90427,Bad Brückenauer Straße,27,,,,single_family_house,1957-11-22,,,,,,,,,1.0,127.0,274.0,,,,,False,,371610.0,11.017893,49.532554999999995
Nürnberg,Buchenbühl,90411,Ohrwaschelweg,28,,,,single_family_house,1952-11-27,,,,,,,,,1.0,110.0,490.0,,,,,False,,310123.0,11.103736,49.505551000000004
Nürnberg,Fischbach,90475,Augraben,82,,,,multi_family_house,2000-02-21,,,,,,,,,1.0,118.0,309.0,,,,,False,,565469.0,11.183043999999999,49.425312
Nürnberg,Eberhardshof,90431,Adam-Klein-Straße,156,,,,multi_family_house,1975-09-15,,,,,,,,,2.0,234.0,917.0,,,,,False,,744309.0,11.035023,49.45671
Nürnberg,Zerzabelshof,90480,Rohrmattenstraße,65,,,,single_family_house,2007-03-14,,,,,,,,,1.0,126.0,275.0,,,,,False,,650701.0,11.13102,49.442866
Nürnberg,Zerzabelshof,90480,Marienbader Straße,12,,,,multi_family_house,1936-05-10,,,,,,,,,2.0,153.0,290.0,,,,,False,,468626.0,11.1219,49.443495
Nürnberg,Wetzendorf,90419,Nordwestring,131,,,,single_family_house,2001-11-03,,,,,,,,,1.0,144.0,858.0,,,,,False,,840455.0,11.056866,49.466894999999994
Nürnberg,Schoppershof,90491,Am Nordostbahnhof,80,,,,single_family_house,2018-10-14,,,,,,,,,1.0,115.0,329.0,,,,,False,,657395.0,11.108203,49.473653000000006
Nürnberg,Altenfurt Nord,90475,Laubaner Straße,8,,,,multi_family_house,1958-02-05,,,,,,,,,3.0,187.0,544.0,,,,,False,,629495.0,11.168562999999999,49.411453
Nürnberg,Bärenschanze,90429,Austraße,71,,,,single_family_house,1890-11-09,,,,,,,,,1.0,77.0,811.0,,,,,False,,233824.0,11.049793,49.449563
Nürnberg,Bärenschanze,90429,Fürther Straße,85,,,,multi_family_house,2035-04-10,,,,,,,,,12.0,722.0,299.0,,,,,False,,3115874.0,11.051161,49.452077
Nürnberg,Wetzendorf,90425,Hermann-Kesten-Ring,91 a,,,,single_family_house,2015-03-15,,,,,,,,,1.0,134.0,270.0,,,,,False,,561778.0,11.055791,49.472102
Nürnberg,Brunn,90475,Brunner Hauptstraße,14,,,,multi_family_house,1929-07-17,,,,,,,,,2.0,246.0,708.0,,,,,False,,471916.0,11.251697,49.435589
Nürnberg,Wöhrd,90489,Keßlerstraße,12,,,,multi_family_house,1964-06-13,,,,,,,,,35.0,2167.0,486.0,,,,,False,,7319847.0,11.089294,49.453738
Nürnberg,Erlenstegen,90491,Volbehrstraße,61,,,,multi_family_house,1998-03-12,,,,,,,,,9.0,901.0,760.0,,,,,False,,3181630.0,11.124886,49.476057
Nürnberg,Altenfurt Nord,90475,Freystädter Straße,127,,,,single_family_house,,,,,,,,,,1.0,95.0,286.0,,,,,False,,365136.0,11.167918,49.410031000000004
Nürnberg,Katzwang,90455,Greuther Straße,9 a,,,,single_family_house,1974-11-16,,,,,,,,,1.0,109.0,328.0,,,,,False,,,11.060134,49.349326
Nürnberg,Langwasser Nordwest,90471,Scharfreiterring,24,,,,,1956-11-20,,,,,,,,,20.0,1291.0,797.0,,,,,False,,3212621.0,11.125492999999999,49.407577
Nürnberg,Katzwang,90455,Penzendorfer Straße,12,,,,single_family_house,1917-09-27,,,,,,,,,1.0,116.0,831.0,,,,,False,,372080.0,11.060337,49.350145
Nürnberg,Sandberg ,90419,Johannisstraße,146C,,,,single_family_house,1929-08-09,,,,,,,,,1.0,61.0,275.0,,,,,False,,236437.0,11.053396,49.461431000000005
Nürnberg,Sündersbühl,90439,Zweigstraße,10,,,,multi_family_house,1968-11-09,,,,,,,,,16.0,999.0,540.0,,,,,False,,2457605.0,11.050596,49.443101
Nürnberg,Katzwang,90453,Kindinger Straße,16,,,,single_family_house,1984-01-03,,,,,,,,,1.0,120.0,589.0,,,,,False,,463947.0,11.037944,49.376773
Nürnberg,Laufamholz,90482,Kasperackerweg,23,,,,single_family_house,2013-09-03,,,,,,,,,1.0,150.0,599.0,,,,,False,,709018.0,11.159707999999998,49.460170999999995
Nürnberg,Maiach,90451,Ilzstraße,12,,,,single_family_house,1960-04-19,,,,,,,,,1.0,127.0,509.0,,,,,False,,477644.0,11.062663,49.407511
Nürnberg,Boxdorf,90427,Steinacher Straße,17,,,,multi_family_house,1969-06-24,,,,,,,,,6.0,341.0,630.0,,,,,False,,985246.0,11.022388,49.515898
Nürnberg,Almoshof,90427,Loher Hauptstraße,126,,,,multi_family_house,2005-10-25,,,,,,,,,4.0,459.0,619.0,,,,,False,,1924308.0,11.071354,49.48821
Nürnberg,Eibach,90451,Motterstraße,24,,,,multi_family_house,1979-04-22,,,,,,,,,2.0,256.0,587.0,,,,,False,,687595.0,11.039523,49.403013
Nürnberg,Großreuth b. Schweinau,90431,Wredestraße,32,,,,multi_family_house,1964-09-21,,,,,,,,,2.0,271.0,336.0,,,,,False,,736313.0,11.028551,49.440677
Nürnberg,Schoppershof,90491,Carl-von-Linde-Straße,15,,,,single_family_house,1965-05-10,,,,,,,,,1.0,135.0,612.0,,,,,False,,550311.0,11.103278999999999,49.46789
Nürnberg,Höfen,90431,Wenzelstraße,5,,,,single_family_house,1926-08-09,,,,,,,,,1.0,121.0,740.0,,,,,False,,374070.0,11.018149000000001,49.455226
Nürnberg,Ludwigsfeld,90478,Birkenhof,3,,,,,1915-10-01,,,,,,,,,1.0,93.0,326.0,,,,,False,,290358.0,11.109784000000001,49.43938400000001
Nürnberg,Reichelsdorf,90453,Geigerstraße,27,,,,single_family_house,1959-08-24,,,,,,,,,1.0,121.0,289.0,,,,,False,,313291.0,11.033116,49.390685000000005
Nürnberg,Fischbach,90475,Prezengraben,5,,,,single_family_house,1981-06-07,,,,,,,,,1.0,134.0,317.0,,,,,False,,370542.0,11.191283,49.422028999999995
Nürnberg,Erlenstegen,90491,Dahlmannstraße,3,,,,single_family_house,1949-10-17,,,,,,,,,1.0,140.0,643.0,,,,,False,,705368.0,11.122686,49.4708
Nürnberg,Gleißhammer,90480,Philipp-Kittler-Straße,6,,,,multi_family_house,1975-10-13,,,,,,,,,10.0,809.0,716.0,,,,,False,,2602028.0,11.112122000000001,49.446336
Nürnberg,Veilhof,90489,Riehlstraße,5 b,,,,,2002-06-22,,,,,,,,,9.0,816.0,525.0,,,,,False,,4391270.0,11.105433,49.459916
Nürnberg,Laufamholz,90482,Neuhauser Straße,48,,,,single_family_house,2011-11-10,,,,,,,,,1.0,140.0,333.0,,,,,False,,635924.0,11.159446999999998,49.465623
Nürnberg,St. Leonhard,90439,Blücherstraße,28 b,,,,multi_family_house,1973-03-20,,,,,,,,,3.0,120.0,537.0,,,,,False,,381288.0,11.042782,49.439053
Nürnberg,Trierer Straße,90469,Wendelsteiner Straße,48 a,,,,multi_family_house,2006-11-13,,,,,,,,,2.0,218.0,496.0,,,,,False,,699984.0,11.102395,49.406515999999996
Nürnberg,Mögeldorf,90482,Ostendstraße,179,,,,multi_family_house,1964-04-22,,,,,,,,,9.0,651.0,709.0,,,,,False,,1817655.0,11.124852,49.458196
Nürnberg,Hasenbuck,90461,Bozener Straße,16,,,,multi_family_house,1960-03-13,,,,,,,,,1.0,57.0,337.0,,,,,False,,140780.0,11.090155000000001,49.427434
Nürnberg,"Kornburg, Worzeldorf",90455,Zum Klösterle,44 b,,,,single_family_house,1969-08-11,,,,,,,,,1.0,121.0,330.0,,,,,False,,409512.0,11.07676,49.380329
Nürnberg,Wetzendorf,90425,Reuthwiesenstraße,1 c,,,,single_family_house,1969-03-27,,,,,,,,,1.0,96.0,518.0,,,,,False,,460609.0,11.056509,49.479448999999995
Nürnberg,Ziegelstein,90411,Hetzleser Straße,6,,,,multi_family_house,1926-11-06,,,,,,,,,2.0,161.0,534.0,,,,,False,,457500.0,11.116471,49.483896
Nürnberg,St. Leonhard,90439,Schneppenhorststraße,19 a,,,,single_family_house,1997-06-09,,,,,,,,,1.0,138.0,264.0,,,,,False,,392271.0,11.04213,49.43879
Nürnberg,"Altenfurt, Moorenbrunn",90475,Kärntner Straße,20,,,,single_family_house,1980-01-27,,,,,,,,,1.0,96.0,332.0,,,,,False,,295165.0,11.172937,49.39728
Nürnberg,Thon,90425,Mittelstraße,72,,,,multi_family_house,1981-04-23,,,,,,,,,2.0,264.0,601.0,,,,,False,,742825.0,11.077838999999999,49.477673
Nürnberg,"Altenfurt, Moorenbrunn",90475,Wittelsbacherstraße,126,,,,multi_family_house,2015-04-10,,,,,,,,,2.0,305.0,325.0,,,,,False,,1208235.0,11.178571,49.40278
Nürnberg,"Altenfurt, Moorenbrunn",90475,Hohenzollernstraße,31,,,,,1983-07-17,,,,,,,,,1.0,122.0,316.0,,,,,False,,391460.0,11.172801999999999,49.401967
Nürnberg,Ziegelstein,90411,Betzensteiner Straße,76,,,,single_family_house,1972-09-16,,,,,,,,,1.0,115.0,271.0,,,,,False,,393462.0,11.117463,49.483099
Nürnberg,Katzwang,90453,Galileistraße,13,,,,single_family_house,1988-04-12,,,,,,,,,1.0,97.0,497.0,,,,,False,,404247.0,11.050453000000001,49.363473
Nürnberg,St. Jobst,90491,Thumenberger Weg,15,,,,multi_family_house,1931-03-14,,,,,,,,,12.0,987.0,789.0,,,,,False,,3390795.0,11.126900000000001,49.464338
Nürnberg,St. Johannis,90419,Bucher Straße,31,,,,multi_family_house,1894-05-25,,,,,,,,,4.0,364.0,295.0,,,,,False,,1228478.0,11.072206,49.460655
Nürnberg,Galgenhof,90459,Comeniusstraße,3,,,,multi_family_house,1959-11-27,,,,,,,,,9.0,797.0,297.0,,,,,False,,2515821.0,11.082321,49.443205
Nürnberg,Ziegelstein,90411,Rathsbergstraße,30,,,,single_family_house,2006-01-20,,,,,,,,,1.0,135.0,338.0,,,,,False,,557702.0,11.104932999999999,49.488824
Nürnberg,Gaismannshof,90431,Leyher Straße,110,,,,single_family_house,2000-04-20,,,,,,,,,1.0,127.0,280.0,,,,,False,,326929.0,11.022264000000002,49.45373
Nürnberg,Steinbühl,90443,Okenstraße,11,,,,multi_family_house,1964-11-11,,,,,,,,,9.0,512.0,316.0,,,,,False,,969348.0,11.066764999999998,49.437478
Nürnberg,Großreuth b. Schweinau,90431,Tillypark,27,,,,single_family_house,2014-10-15,,,,,,,,,1.0,110.0,275.0,,,,,False,,441336.0,11.034807,49.434560000000005
Nürnberg,Wetzendorf,90425,Saßnitzer Straße,12,,,,single_family_house,1985-11-06,,,,,,,,,1.0,166.0,764.0,,,,,False,,664726.0,11.055157,49.476405000000014
Nürnberg,Thon,90425,Sylter Straße,8,,,,single_family_house,1994-08-15,,,,,,,,,1.0,144.0,557.0,,,,,False,,603193.0,11.066847,49.480769
Nürnberg,Boxdorf,90427,Erich-Ollenhauer-Straße,20,,,,single_family_house,1978-11-23,,,,,,,,,1.0,122.0,777.0,,,,,False,,484210.0,11.023778,49.520406
Nürnberg,"Altenfurt, Moorenbrunn",90475,Hohenzollernstraße,18 a,,,,single_family_house,1971-08-22,,,,,,,,,1.0,132.0,307.0,,,,,False,,378736.0,11.170081,49.402772999999996
Nürnberg,Gleißhammer,90480,Zerzabelshofstraße,75,,,,multi_family_house,1946-03-01,,,,,,,,,11.0,708.0,715.0,,,,,False,,1953746.0,11.115682999999999,49.44416
Nürnberg,"Kornburg, Worzeldorf",90455,Klingerstraße,11 b,,,,single_family_house,1997-03-27,,,,,,,,,1.0,106.0,334.0,,,,,False,,374846.0,11.097801,49.375173
Nürnberg,Thon,90425,Glückstädter Straße,4,,,,single_family_house,1975-10-21,,,,,,,,,1.0,103.0,280.0,,,,,False,,484496.0,11.068432,49.48011
Nürnberg,St. Leonhard,90439,Rothenburger Straße,145,,,,multi_family_house,2012-09-21,,,,,,,,,136.0,9321.0,919.0,,,,,False,,43236770.0,11.051463,49.441864
Nürnberg,Gebersdorf,90449,Gebersdorfer Straße,105,,,,multi_family_house,1954-02-27,,,,,,,,,8.0,650.0,845.0,,,,,False,,1469462.0,11.010064,49.424008
Nürnberg,Eibach,90451,Castellstraße,30,,,,,1957-07-01,,,,,,,,,1.0,118.0,297.0,,,,,False,,392950.0,11.032236000000001,49.406866
Nürnberg,Wöhrd,90489,Georg-Strobel-Straße,35,,,,multi_family_house,1980-08-13,,,,,,,,,12.0,694.0,299.0,,,,,False,,1700085.0,11.096254,49.456306000000005
Nürnberg,Uhlandstraße,90408,Riemenschneiderstraße,25,,,,multi_family_house,1937-06-05,,,,,,,,,9.0,543.0,263.0,,,,,False,,1911194.0,11.073984000000001,49.466284
Nürnberg,Großgründlach,90427,Simon-Schöffel-Straße,36,,,,single_family_house,2003-02-05,,,,,,,,,1.0,114.0,263.0,,,,,False,,475373.0,11.015216,49.532963
Nürnberg,St. Leonhard,90439,Tulpenstraße,10,,,,multi_family_house,1964-07-18,,,,,,,,,7.0,495.0,505.0,,,,,False,,1112690.0,11.053929,49.439394
Nürnberg,Nürnberg                  ,90453,Terzkastraße,10,,,,single_family_house,1984-01-24,,,,,,,,,1.0,132.0,608.0,,,,,False,,482511.0,11.0183,49.374168000000004
Nürnberg,Zerzabelshof,90480,Rohrmattenstraße,43,,,,single_family_house,1931-05-04,,,,,,,,,1.0,105.0,276.0,,,,,False,,380804.0,11.130865,49.443116
Nürnberg,Brunn,90475,Pfaffenstein,5,,,,single_family_house,1970-05-10,,,,,,,,,1.0,159.0,879.0,,,,,False,,408518.0,11.256741,49.431897
Nürnberg,Laufamholz,90482,Schüsselwiesenweg,6,,,,single_family_house,2018-07-14,,,,,,,,,1.0,117.0,296.0,,,,,False,,583613.0,11.157596999999999,49.460838
Nürnberg,St. Leonhard,90439,Blücherstraße,36,,,,single_family_house,1949-10-06,,,,,,,,,1.0,111.0,314.0,,,,,False,,346114.0,11.044934,49.43698
Nürnberg,Gartenstadt,90469,Taunusweg,6,,,,multi_family_house,1939-03-19,,,,,,,,,4.0,226.0,497.0,,,,,False,,671130.0,11.085396999999999,49.400087
Nürnberg,St. Leonhard,90439,Felixstraße,20,,,,multi_family_house,1974-03-22,,,,,,,,,8.0,625.0,744.0,,,,,False,,1534270.0,11.046639,49.441389
Nürnberg,Veilhof,90489,Freytagstraße,9,,,,multi_family_house,1902-08-05,,,,,,,,,5.0,433.0,624.0,,,,,False,,1344877.0,11.106332,49.459267000000004
Nürnberg,"Altenfurt, Moorenbrunn",90475,Hohenzollernstraße,43 b,,,,single_family_house,2005-08-09,,,,,,,,,1.0,118.0,276.0,,,,,False,,442897.0,11.174783,49.401461999999995
Nürnberg,Eibach,90451,Hafenstraße,32 a,,,,single_family_house,1960-07-04,,,,,,,,,1.0,104.0,252.0,,,,,False,,379082.0,11.038984000000001,49.407474
Nürnberg,Eibach,90451,Schleichstraße,16,,,,single_family_house,1922-09-14,,,,,,,,,1.0,120.0,288.0,,,,,False,,332190.0,11.031714000000001,49.408905999999995
Nürnberg,Langwasser Südwest,90473,Franz-Reichel-Ring,3,,,,multi_family_house,1982-04-22,,,,,,,,,13.0,963.0,725.0,,,,,False,,2607369.0,11.13157,49.394943
Nürnberg,Gostenhof,90443,Rothenburger Straße,59,,,,multi_family_house,1895-02-11,,,,,,,,,27.0,2150.0,271.0,,,,,False,,5720214.0,11.057169,49.446293000000004
Nürnberg,Kraftshof,90427,Schiestlstraße,23,,,,multi_family_house,1980-10-10,,,,,,,,,4.0,280.0,673.0,,,,,False,,898286.0,11.053538999999999,49.510439
Nürnberg,Großreuth b. Schweinau,90431,Tillystraße,20,,,,multi_family_house,1929-06-12,,,,,,,,,8.0,444.0,757.0,,,,,False,,1292416.0,11.033367,49.434612
Nürnberg,"Altstadt, St. Sebald",90403,Lammsgasse,15,,,,multi_family_house,1971-08-26,,,,,,,,,5.0,278.0,318.0,,,,,False,,838625.0,11.073063,49.455926
Nürnberg,Erlenstegen,90491,Kneippstraße,12,,,,single_family_house,1983-10-17,,,,,,,,,1.0,131.0,970.0,,,,,False,,898705.0,11.134935,49.476353
Nürnberg,Werderau,90441,Schlehdornweg,39,,,,single_family_house,1994-11-16,,,,,,,,,1.0,133.0,569.0,,,,,False,,483042.0,11.054481,49.419731999999996
Nürnberg,Gebersdorf,90449,Großhabersdorfer Weg,47,,,,single_family_house,1966-11-18,,,,,,,,,1.0,155.0,779.0,,,,,False,,464163.0,11.001903,49.434651
Nürnberg,Gleißhammer,90480,Fallrohrstraße,32,,,,multi_family_house,1936-10-08,,,,,,,,,2.0,189.0,307.0,,,,,True,,532312.0,11.121001,49.447427000000005
Nürnberg,Gugelstraße,90461,Sperberstraße,31,,,,multi_family_house,1888-09-10,,,,,,,,,9.0,749.0,282.0,,,,,False,,1787651.0,11.081055000000001,49.432138
Nürnberg,Ludwigsfeld,90478,Boelckestraße,17,,,,multi_family_house,1941-01-05,,,,,,,,,4.0,415.0,532.0,,,,,False,,1008302.0,11.110051,49.439837999999995
Nürnberg,Langwasser Nordost,90471,Tucholskystraße,22,,,,multi_family_house,1978-06-07,,,,,,,,,1.0,99.0,531.0,,,,,False,,310715.0,11.134242,49.414367
Nürnberg,"Kornburg, Worzeldorf",90455,Erich-Heckel-Straße,4,,,,single_family_house,2027-03-20,,,,,,,,,1.0,143.0,268.0,,,,,False,,477805.0,11.082173,49.36857199999999
Nürnberg,Glockenhof,90478,Keplerstraße,9,,,,,1905-09-23,,,,,,,,,16.0,1427.0,520.0,,,,,False,,3731231.0,11.090210999999998,49.445309
Nürnberg,Wöhrd,90489,Martin-Richter-Straße,26,,,,multi_family_house,1899-02-18,,,,,,,,,9.0,619.0,319.0,,,,,False,,2002663.0,11.095249,49.460712
Nürnberg,Westfriedhof,90425,Bienweg,30 a,,,,single_family_house,1974-03-11,,,,,,,,,1.0,114.0,577.0,,,,,False,,490984.0,11.046072,49.467439
Nürnberg,Gartenstadt,90469,Regenbogenstraße,39,,,,single_family_house,1935-01-25,,,,,,,,,1.0,97.0,333.0,,,,,False,,295313.0,11.072595000000002,49.417002
Nürnberg,Bärenschanze,90429,Willstraße,7,,,,multi_family_house,1929-08-17,,,,,,,,,15.0,731.0,575.0,,,,,False,,1882954.0,11.054910000000001,49.452086
Nürnberg,Veilhof,90489,Georg-Strobel-Straße,71,,,,multi_family_house,1952-06-08,,,,,,,,,7.0,460.0,264.0,,,,,False,,1258225.0,11.099949,49.457007999999995
Nürnberg,Steinbühl,90443,Wiesenstraße,46,,,,multi_family_house,1963-05-16,,,,,,,,,8.0,526.0,583.0,,,,,False,,1260641.0,11.071506999999999,49.440291
Nürnberg,Eibach,90451,Schußleitenweg,57,,,,single_family_house,1916-10-13,,,,,,,,,1.0,126.0,606.0,,,,,False,,395376.0,11.028996999999999,49.409164999999994
Nürnberg,Schmausenbuckstraße,90480,Ginsterweg,40,,,,single_family_house,1938-05-16,,,,,,,,,1.0,140.0,673.0,,,,,False,,627505.0,11.136253,49.456434
Nürnberg,"Kornburg, Worzeldorf",90455,Propsteistraße,114,,,,single_family_house,1984-03-04,,,,,,,,,1.0,95.0,330.0,,,,,False,,922570803.0,11.073275,49.379046
Nürnberg,Eibach,90451,Motterstraße,116,,,,single_family_house,1973-07-25,,,,,,,,,1.0,79.0,297.0,,,,,False,,329766.0,11.044718000000001,49.404188
Nürnberg,Steinbühl,90443,Herschelstraße,9,,,,multi_family_house,1924-02-07,,,,,,,,,4.0,362.0,521.0,,,,,False,,864937.0,11.065114999999999,49.437824
Nürnberg,"Altstadt, St. Lorenz",90403,Adlerstraße,22,,,,multi_family_house,1895-11-13,,,,,,,,,4.0,505.0,560.0,,,,,False,,,11.075878,49.451945
Nürnberg,Ziegelstein,90411,Wissmannstraße,57,,,,,1940-11-27,,,,,,,,,6.0,357.0,922.0,,,,,False,,972028.0,11.112309,49.480943
Nürnberg,Steinbühl,90443,Okenstraße,26,,,,multi_family_house,1988-05-25,,,,,,,,,14.0,809.0,263.0,,,,,False,,2025554.0,11.06886,49.437689999999996
Nürnberg,Uhlandstraße,90408,Innere Kobergerstraße,25,,,,multi_family_house,1878-09-15,,,,,,,,,7.0,415.0,549.0,,,,,False,,1736662.0,11.079343,49.464203000000005
Nürnberg,Thon,90425,Mittelstraße,24,,,,single_family_house,2035-11-09,,,,,,,,,1.0,161.0,738.0,,,,,False,,825235.0,11.073371,49.476449
Nürnberg,Großgründlach,90427,Josef-Schaitberger-Straße,12,,,,single_family_house,1997-10-25,,,,,,,,,1.0,105.0,323.0,,,,,False,,467757.0,11.01407,49.533376000000004
Nürnberg,Schmausenbuckstraße,90480,Hersbrucker Straße,22,,,,multi_family_house,1990-05-25,,,,,,,,,3.0,366.0,599.0,,,,,True,,1729345.0,11.137702,49.454996
Nürnberg,"Altenfurt, Moorenbrunn",90475,Gutshofstraße,48 a,,,,single_family_house,1971-07-08,,,,,,,,,1.0,107.0,253.0,,,,,False,,414932.0,11.171928,49.396582
Nürnberg,St. Jobst,90491,Äußere Sulzbacher Straße,33,,,,multi_family_house,1975-04-19,,,,,,,,,7.0,731.0,480.0,,,,,False,,1818833.0,11.107821,49.461386999999995
Nürnberg,Bielingplatz,90419,Kirchenweg,45,,,,multi_family_house,1889-08-15,,,,,,,,,8.0,543.0,272.0,,,,,False,,1714611.0,11.063881,49.461304
Nürnberg,"Altstadt, St. Lorenz",90402,Karl-Grillenberger-Straße,1B,,,,multi_family_house,1918-02-08,,,,,,,,,10.0,1008.0,1031.0,,,,,False,,3548383.0,11.070903,49.452042
Nürnberg,Glockenhof,90461,Alberichstraße,6,,,,multi_family_house,1958-08-13,,,,,,,,,10.0,887.0,491.0,,,,,False,,1825794.0,11.098894,49.439522000000004
Nürnberg,Eibach,90451,Castellstraße,9 a,,,,multi_family_house,2006-11-22,,,,,,,,,5.0,337.0,835.0,,,,,False,,1066013.0,11.033877,49.405661
Nürnberg,Pirckheimerstraße,90408,Krelingstraße,15,,,,,1894-04-16,,,,,,,,,4.0,516.0,331.0,,,,,False,,1718379.0,11.07838,49.459859
Nürnberg,St. Jobst,90491,Julius-Tafel-Straße,4,,,,multi_family_house,1974-07-20,,,,,,,,,5.0,481.0,831.0,,,,,False,,1446830.0,11.112969999999999,49.462343
Nürnberg,Sandberg ,90419,Helmstraße,35,,,,multi_family_house,1901-02-18,,,,,,,,,4.0,328.0,313.0,,,,,False,,823561.0,11.057805,49.459763
Nürnberg,Thon,90425,Sylter Straße,7 b,,,,single_family_house,1991-07-04,,,,,,,,,1.0,102.0,312.0,,,,,False,,545159.0,11.066016000000001,49.480706
Nürnberg,Gaismannshof,90431,Seebacher Straße,16,,,,multi_family_house,1931-10-01,,,,,,,,,2.0,155.0,319.0,,,,,False,,391661.0,11.035962999999999,49.450793999999995
Nürnberg,Boxdorf,90427,Schneebergweg,9,,,,single_family_house,1961-11-14,,,,,,,,,1.0,123.0,258.0,,,,,False,,398975.0,11.029343,49.518462
Nürnberg,"Kornburg, Worzeldorf",90455,Klosterweg,86,,,,single_family_house,1988-10-26,,,,,,,,,1.0,132.0,309.0,,,,,False,,1073241037.0,11.073961,49.37598
Nürnberg,Ludwigsfeld,90478,Neumarkter Straße,48,,,,multi_family_house,1951-08-01,,,,,,,,,8.0,526.0,766.0,,,,,False,,1213363.0,11.112041999999999,49.441413
Nürnberg,Boxdorf,90427,An der Hofwiese,54,,,,single_family_house,1973-11-13,,,,,,,,,1.0,114.0,295.0,,,,,False,,305974.0,11.023711,49.518691000000004
Nürnberg,Fischbach,90475,Hochwurzel,1,,,,single_family_house,2004-07-24,,,,,,,,,1.0,134.0,283.0,,,,,False,,,11.19013,49.418584
Nürnberg,"Kornburg, Worzeldorf",90455,Am Wasserturm,28,,,,single_family_house,1986-06-14,,,,,,,,,1.0,127.0,326.0,,,,,False,,275263.0,11.104255,49.354806
Nürnberg,Röthenbach West,90449,Dinkelsbühler Straße,4 a,,,,single_family_house,1951-03-27,,,,,,,,,1.0,112.0,519.0,,,,,False,,381878.0,11.025748,49.420687
Nürnberg,Kraftshof,90427,Ihlestraße,4,,,,single_family_house,1982-05-14,,,,,,,,,1.0,162.0,598.0,,,,,False,,530043.0,11.05741,49.508741
Nürnberg,Himpfelshof,90429,Praterstraße,10,,,,multi_family_house,2001-08-10,,,,,,,,,10.0,698.0,522.0,,,,,False,,2465612.0,11.065339,49.454699
Nürnberg,St. Leonhard,90439,Adelheidstraße,28B,,,,multi_family_house,1947-10-11,,,,,,,,,9.0,574.0,529.0,,,,,False,,1451612.0,11.038386000000001,49.437757000000005
Nürnberg,Fischbach,90475,Gogolstraße,25,,,,single_family_house,1974-01-27,,,,,,,,,1.0,144.0,338.0,,,,,False,,356484.0,11.195371000000002,49.41601
Nürnberg,Gebersdorf,90449,Windsheimer Straße,37,,,,multi_family_house,1943-01-11,,,,,,,,,3.0,260.0,680.0,,,,,False,,675615.0,11.000877,49.429705
Nürnberg,Fischbach,90475,Kreuzwiesenweg,1 a,,,,multi_family_house,1966-03-25,,,,,,,,,8.0,609.0,523.0,,,,,False,,1797179.0,11.19747,49.420044
Nürnberg,"Altstadt, St. Sebald",90403,Laufertormauer,14,,,,multi_family_house,1960-05-22,,,,,,,,,9.0,660.0,321.0,,,,,False,,1887973.0,11.088137,49.456371
Nürnberg,Muggenhof,90429,Fürther Straße,320,,,,,1950-04-23,,,,,,,,,19.0,902.0,285.0,,,,,False,,2925361.0,11.022894,49.462019
Nürnberg,Marienberg ,90411,Herrnhüttestraße,51,,,,single_family_house,1998-09-02,,,,,,,,,1.0,126.0,270.0,,,,,False,,599253.0,11.101738000000001,49.480497
Nürnberg,Ludwigsfeld,90478,Dutzendteichstraße,23,,,,single_family_house,1939-07-12,,,,,,,,,1.0,95.0,265.0,,,,,False,,395986.0,11.115331,49.437467
Nürnberg,St. Leonhard,90439,Heinrichstraße,49,,,,multi_family_house,1911-08-16,,,,,,,,,13.0,955.0,590.0,,,,,False,,2559417.0,11.047134999999999,49.438042
Nürnberg,Langwasser Südost,90473,Jauerstraße,173,,,,single_family_house,1986-04-07,,,,,,,,,1.0,117.0,298.0,,,,,False,,323399.0,11.145045,49.40557400000001
Nürnberg,Hummelstein,90459,Voltastraße,57,,,,multi_family_house,1931-06-25,,,,,,,,,8.0,596.0,283.0,,,,,False,,1236516.0,11.080295,49.434225000000005
Nürnberg,Gartenstadt,90469,Regenbogenstraße,78,,,,single_family_house,1935-09-13,,,,,,,,,1.0,118.0,287.0,,,,,False,,242112.0,11.072688,49.415707000000005
Nürnberg,Fischbach,90475,Leskowstraße,37,,,,single_family_house,1989-04-20,,,,,,,,,1.0,123.0,326.0,,,,,False,,483849.0,11.190136,49.418567
Nürnberg,Rangierbahnhof-Siedlung,90471,Planetenring,5,,,,multi_family_house,1967-06-17,,,,,,,,,7.0,350.0,835.0,,,,,False,,830525.0,11.106961,49.41440700000001
Nürnberg,Langwasser Südost,90473,Reinerzer Straße,60,,,,multi_family_house,1940-03-10,,,,,,,,,4.0,465.0,877.0,,,,,False,,1266549.0,11.142066999999999,49.405361000000006
Nürnberg,Höfen,90431,Philippstraße,46,,,,single_family_house,1997-06-19,,,,,,,,,1.0,110.0,311.0,,,,,False,,342725.0,11.007834,49.451395
Nürnberg,Gartenstadt,90469,Saarbrückener Straße,58,,,,single_family_house,1939-07-09,,,,,,,,,1.0,113.0,579.0,,,,,False,,373951.0,11.086267,49.401148
Nürnberg,"Kornburg, Worzeldorf",90455,Kubinstraße,83,,,,,2010-05-23,,,,,,,,,1.0,135.0,336.0,,,,,False,,455034.0,11.085180999999999,49.367269
Nürnberg,Katzwang,90455,Hans-Traut-Straße,29,,,,multi_family_house,1972-05-18,,,,,,,,,2.0,292.0,552.0,,,,,False,,779551.0,11.057789,49.349091
Nürnberg,"Kornburg, Worzeldorf",90455,Am Wiesengrund,7,,,,single_family_house,2017-02-05,,,,,,,,,1.0,161.0,563.0,,,,,False,,569351.0,11.096031,49.371621000000005
Nürnberg,Gebersdorf,90449,Rezatweg,44,,,,single_family_house,1987-04-14,,,,,,,,,1.0,127.0,531.0,,,,,False,,371650.0,11.010403,49.430933
Nürnberg,Trierer Straße,90469,Pirmasenser Straße,54 a,,,,single_family_house,1959-02-27,,,,,,,,,1.0,127.0,616.0,,,,,False,,377298.0,11.097025,49.400747
Nürnberg,Gebersdorf,90449,Asbacher Straße,37,,,,multi_family_house,1994-08-04,,,,,,,,,4.0,289.0,338.0,,,,,False,,786925.0,11.010204,49.42929
Nürnberg,Gaismannshof,90431,Sankt-Gallen-Ring,124,,,,single_family_house,2009-05-22,,,,,,,,,1.0,146.0,320.0,,,,,False,,515104.0,11.029482999999999,49.443543
Nürnberg,Gaismannshof,90431,Langenzenner Straße,17,,,,single_family_house,1937-09-15,,,,,,,,,1.0,103.0,269.0,,,,,False,,371402.0,11.026582,49.454
Nürnberg,Wöhrd,90489,Ludwig-Feuerbach-Straße,35,,,,multi_family_house,1926-07-09,,,,,,,,,26.0,1538.0,538.0,,,,,False,,5503973.0,11.097087,49.460612000000005
Nürnberg,Langwasser Südwest,90473,Oppelner Straße,188,,,,multi_family_house,1950-01-18,,,,,,,,,1.0,73.0,266.0,,,,,False,,179189.0,11.132337999999999,49.402826999999995
Nürnberg,St. Leonhard,90439,Schneppenhorststraße,59,,,,,1989-01-11,,,,,,,,,2.0,268.0,327.0,,,,,False,,592158.0,11.041081,49.438728
Nürnberg,Tullnau,90482,Speckhartstraße,3,,,,,1931-08-13,,,,,,,,,7.0,558.0,329.0,,,,,False,,1238932.0,11.115782000000001,49.455005
Nürnberg,Langwasser Nordost,90471,Frank-Wedekind-Straße,61,,,,single_family_house,1981-07-24,,,,,,,,,1.0,120.0,271.0,,,,,False,,435193.0,11.135584,49.415664
Nürnberg,Gartenstadt,90469,Paumannstraße,52,,,,single_family_house,1930-11-06,,,,,,,,,1.0,111.0,280.0,,,,,False,,266511.0,11.079114,49.412382
Nürnberg,Nürnberg                  ,90453,Waldwinkel,43,,,,multi_family_house,1979-10-12,,,,,,,,,2.0,263.0,675.0,,,,,False,,732555.0,11.025602,49.371074
Nürnberg,Galgenhof,90459,Paulstraße,25,,,,,1996-09-02,,,,,,,,,6.0,560.0,267.0,,,,,False,,2320987.0,11.089779,49.441097000000006
Nürnberg,Laufamholz,90482,Moritzbergstraße,74,,,,multi_family_house,1992-08-18,,,,,,,,,10.0,698.0,729.0,,,,,False,,2371873.0,11.166646,49.467082999999995
Nürnberg,Marienberg ,90411,Othmayrstraße,13,,,,single_family_house,1970-07-07,,,,,,,,,1.0,122.0,636.0,,,,,False,,475468.0,11.103459,49.478227999999994
Nürnberg,Röthenbach West,90449,Jenigweg,11,,,,multi_family_house,1952-09-06,,,,,,,,,3.0,252.0,246.0,,,,,False,,562875.0,11.015073000000001,49.420126
Nürnberg,Dianastraße,90441,Nimrodstraße,22,,,,multi_family_house,1967-05-23,,,,,,,,,2.0,139.0,4717.0,,,,,False,,302627.0,11.069671,49.423341
Nürnberg,Erlenstegen,90491,Eichendorffstraße,13,,,,single_family_house,2023-03-25,,,,,,,,,1.0,171.0,674.0,,,,,False,,945775.0,11.132141,49.472853
Nürnberg,Großreuth b. Schweinau,90431,Tillystraße,26,,,,multi_family_house,1943-11-01,,,,,,,,,15.0,1239.0,938.0,,,,,False,,3476101.0,11.033705,49.433949
Nürnberg,Kraftshof,90427,Kraftshofer Hauptstraße,181,,,,multi_family_house,1929-11-11,,,,,,,,,2.0,294.0,557.0,,,,,False,,788673.0,11.04706,49.512438
Nürnberg,Schleifweg,90409,Eintrachtstraße,53,,,,multi_family_house,1951-09-20,,,,,,,,,4.0,239.0,514.0,,,,,False,,818571.0,11.082699,49.469676000000014
Nürnberg,Fischbach,90475,Augraben,2,,,,single_family_house,2008-06-02,,,,,,,,,1.0,126.0,591.0,,,,,False,,668029.0,11.192127,49.42455000000001
Nürnberg,Eibach,90451,Motterstraße,49,,,,multi_family_house,1962-10-01,,,,,,,,,4.0,348.0,909.0,,,,,False,,1213256.0,11.042551,49.405449999999995
Nürnberg,Laufamholz,90482,Laufamholzstraße,146 d,,,,single_family_house,1963-10-13,,,,,,,,,1.0,129.0,323.0,,,,,False,,486493.0,11.153163,49.464768
Nürnberg,Wetzendorf,90427,Rendsburger Straße,16,,,,single_family_house,1984-03-24,,,,,,,,,1.0,136.0,307.0,,,,,False,,442354.0,11.031777,49.474966
Nürnberg,Röthenbach West,90449,Gebersdorfer Straße,71 f,,,,single_family_house,2007-02-20,,,,,,,,,1.0,111.0,480.0,,,,,False,,569880.0,11.013862000000001,49.421968
Nürnberg,Laufamholz,90482,Landenwiesenstraße,33,,,,single_family_house,2034-07-25,,,,,,,,,1.0,116.0,251.0,,,,,False,,612717.0,11.151887,49.461109
Nürnberg,Himpfelshof,90429,Bleichstraße,10,,,,multi_family_house,1943-09-22,,,,,,,,,15.0,1021.0,561.0,,,,,False,,3427920.0,11.063663,49.451952999999996
Nürnberg,Neunhof,90427,Irisweg,24,,,,multi_family_house,1957-11-16,,,,,,,,,2.0,157.0,782.0,,,,,False,,538996.0,11.045292000000002,49.520256
Nürnberg,Langwasser Südost,90473,Imbuschstraße,35,,,,multi_family_house,1961-11-08,,,,,,,,,24.0,1660.0,648.0,,,,,False,,4773747.0,11.146705,49.40041900000001
Nürnberg,Glockenhof,90461,Allersberger Straße,89,,,,multi_family_house,1988-04-09,,,,,,,,,2.0,319.0,618.0,,,,,False,,995751.0,11.090443,49.439833
Nürnberg,Guntherstraße,90461,Isoldenstraße,8 c,,,,single_family_house,1972-04-11,,,,,,,,,1.0,125.0,277.0,,,,,False,,478648.0,11.095099,49.43481
Nürnberg,St. Jobst,90491,Bismarckstraße,73,,,,multi_family_house,1928-09-08,,,,,,,,,2.0,287.0,746.0,,,,,False,,733392.0,11.108084999999999,49.465610999999996
Nürnberg,Trierer Straße,90469,Pirmasenser Straße,157,,,,single_family_house,1978-10-08,,,,,,,,,1.0,131.0,530.0,,,,,False,,455423.0,11.096819,49.404251
Nürnberg,Katzwang,90453,Vorjurastraße,165,,,,single_family_house,2018-09-07,,,,,,,,,1.0,134.0,281.0,,,,,False,,470264.0,11.045069,49.36928
Nürnberg,Sandberg ,90419,Sandbergstraße,29,,,,multi_family_house,1981-04-15,,,,,,,,,3.0,228.0,312.0,,,,,False,,711837.0,11.059248,49.459735
Nürnberg,Maiach,90451,Isarstraße,23,,,,single_family_house,1982-10-13,,,,,,,,,1.0,121.0,622.0,,,,,False,,376793.0,11.061137,49.408262
Nürnberg,Laufamholz,90482,Hartensteiner Straße,26,,,,single_family_house,1964-05-07,,,,,,,,,1.0,115.0,288.0,,,,,False,,318043.0,11.170719,49.464748
Nürnberg,Wetzendorf,90425,Schleswiger Straße,1,,,,multi_family_house,1962-09-19,,,,,,,,,4.0,230.0,711.0,,,,,False,,759343.0,11.060453,49.479787
Nürnberg,Zerzabelshof,90480,Heiner-Stuhlfauth-Straße,6,,,,multi_family_house,2019-03-19,,,,,,,,,4.0,624.0,626.0,,,,,False,,2526580.0,11.123542,49.444677999999996
Nürnberg,Trierer Straße,90469,Landsweilerstraße,88,,,,,1977-06-21,,,,,,,,,1.0,119.0,771.0,,,,,False,,377313.0,11.094541,49.39898
Nürnberg,Sandberg ,90419,Weichselstraße,5,,,,multi_family_house,1915-02-22,,,,,,,,,7.0,396.0,280.0,,,,,False,,942567.0,11.05265,49.458669
Nürnberg,Langwasser Nordost,90471,Carossaweg,19,,,,single_family_house,1965-06-08,,,,,,,,,1.0,126.0,272.0,,,,,False,,381123.0,11.125281,49.410944
Nürnberg,Veilhof,90489,Meisterleinsplatz,26,,,,multi_family_house,1983-07-24,,,,,,,,,10.0,536.0,309.0,,,,,False,,1934974.0,11.098192,49.454460000000005
Nürnberg,Erlenstegen,90491,Dahlmannstraße,50,,,,single_family_house,1982-06-04,,,,,,,,,1.0,133.0,278.0,,,,,False,,471359.0,11.120947,49.472578
Nürnberg,Schoppershof,90491,Mommsenstraße,75,,,,multi_family_house,1938-02-12,,,,,,,,,11.0,658.0,550.0,,,,,False,,1627445.0,11.105715,49.470769000000004
Nürnberg,Schleifweg,90409,Merianstraße,61,,,,,1991-06-12,,,,,,,,,1.0,125.0,271.0,,,,,False,,431831.0,11.100099,49.472685000000006
Nürnberg,Pirckheimerstraße,90408,Pirckheimerstraße,69,,,,multi_family_house,1969-02-07,,,,,,,,,7.0,516.0,267.0,,,,,False,,2153141.0,11.082953999999999,49.461039
Nürnberg,Trierer Straße,90469,Annweilerstraße,6,,,,single_family_house,1980-02-21,,,,,,,,,1.0,99.0,280.0,,,,,False,,290237.0,11.093488,49.404851
Nürnberg,Röthenbach Ost,90451,Stargarder Straße,18,,,,single_family_house,1990-04-21,,,,,,,,,1.0,102.0,306.0,,,,,False,,461923.0,11.037929,49.411964000000005
Nürnberg,Schoppershof,90491,Eisenacher Straße,17,,,,multi_family_house,1930-04-13,,,,,,,,,7.0,439.0,481.0,,,,,False,,1160476.0,11.106843999999999,49.472427
Nürnberg,Kraftshof,90427,Glaserstraße,34,,,,single_family_house,1988-03-08,,,,,,,,,1.0,128.0,599.0,,,,,False,,402409.0,11.0515,49.510562
Nürnberg,Gibitzenhof,90443,Wilhelm-Löhe-Straße,5 a,,,,multi_family_house,1938-09-27,,,,,,,,,12.0,803.0,758.0,,,,,False,,1548043.0,11.067421,49.429469
Nürnberg,Katzwang,90453,Elbestraße,10 a,,,,single_family_house,1976-05-06,,,,,,,,,1.0,110.0,252.0,,,,,False,,261933.0,11.055943,49.359897
Nürnberg,Maxfeld,90409,Löbleinstraße,52,,,,multi_family_house,1969-08-07,,,,,,,,,10.0,724.0,275.0,,,,,False,,2275452.0,11.087824,49.464940000000006
Nürnberg,Gartenstadt,90469,Regenbogenstraße,116,,,,single_family_house,1940-05-25,,,,,,,,,1.0,98.0,348.0,,,,,False,,243197.0,11.073538000000001,49.4145
Nürnberg,"Kornburg, Worzeldorf",90455,Kellermannstraße,2,,,,multi_family_house,1989-01-11,,,,,,,,,5.0,479.0,612.0,,,,,False,,1416486.0,11.103455,49.356278
Nürnberg,Veilhof,90489,Geuderstraße,11,,,,multi_family_house,1913-10-05,,,,,,,,,7.0,697.0,338.0,,,,,False,,2217248.0,11.100776,49.462675
Nürnberg,Mögeldorf,90482,Bondorfer Weg,1,,,,single_family_house,1970-05-09,,,,,,,,,1.0,230.0,994.0,,,,,False,,1246935.0,11.142247,49.466977
Nürnberg,Mooshof,90411,Hugo-Junkers-Straße,20,,,,single_family_house,1984-01-09,,,,,,,,,1.0,126.0,285.0,,,,,False,,361656.0,11.097489,49.485789000000004
Nürnberg,Eibach,90451,Luzernenweg,5,,,,,1979-05-19,,,,,,,,,4.0,537.0,727.0,,,,,False,,1785134.0,11.032481,49.400554
Nürnberg,St. Leonhard,90439,Goerdelerstraße,39,,,,single_family_house,1969-01-17,,,,,,,,,1.0,117.0,277.0,,,,,True,,358377.0,11.043232,49.437572
Nürnberg,Veilhof,90491,Doktor-Gustav-Heinemann-Straße,22,,,,multi_family_house,1995-08-22,,,,,,,,,8.0,487.0,757.0,,,,,False,,1837361.0,11.107643999999999,49.459075
Nürnberg,Brunn,90475,Am Maderersbrunnen,3,,,,single_family_house,1988-08-02,,,,,,,,,1.0,128.0,697.0,,,,,False,,452340.0,11.252676000000001,49.439518
Nürnberg,Gaismannshof,90431,Neustädter Straße,24,,,,single_family_house,1937-07-08,,,,,,,,,1.0,119.0,515.0,,,,,False,,435314.0,11.028774,49.454921999999996
Nürnberg,"Altenfurt, Moorenbrunn",90475,Streubuck,28 a,,,,,1961-01-12,,,,,,,,,1.0,144.0,748.0,,,,,False,,472476.0,11.169668,49.393297999999994
Nürnberg,Galgenhof,90459,Hummelsteiner Weg,14 b,,,,multi_family_house,1901-10-26,,,,,,,,,7.0,671.0,594.0,,,,,False,,1449612.0,11.082749,49.443025
Nürnberg,Altenfurt Nord,90475,Wichernstraße,31,,,,single_family_house,1970-04-26,,,,,,,,,1.0,147.0,270.0,,,,,False,,430606.0,11.166956,49.409327000000005
Nürnberg,Reichelsdorf,90453,Solnhofener Straße,7,,,,single_family_house,1983-02-06,,,,,,,,,1.0,117.0,623.0,,,,,False,,504785.0,11.034908,49.38504
Nürnberg,Katzwang,90455,Meyerbeerstraße,6,,,,multi_family_house,1962-08-23,,,,,,,,,2.0,263.0,502.0,,,,,False,,658132.0,11.064106,49.351613
Nürnberg,Katzwang,90453,Katzwanger Hauptstraße,40,,,,,2013-11-20,,,,,,,,,5.0,597.0,666.0,,,,,False,,2476509.0,11.051929999999999,49.35922
Nürnberg,"Altenfurt, Moorenbrunn",90475,Habsburgerstraße,18,,,,multi_family_house,2023-01-25,,,,,,,,,2.0,251.0,622.0,,,,,False,,1176407.0,11.169266,49.407697
Nürnberg,Katzwang,90455,Im Humpengarten,9,,,,single_family_house,1996-06-26,,,,,,,,,1.0,154.0,607.0,,,,,False,,483733.0,11.058665999999999,49.35994500000001
Nürnberg,Großgründlach,90427,Hansengarten,20,,,,single_family_house,1980-10-08,,,,,,,,,1.0,134.0,285.0,,,,,False,,412105.0,11.018015,49.528928
Nürnberg,Wöhrd,90489,Stabiusstraße,7,,,,multi_family_house,1981-02-20,,,,,,,,,10.0,689.0,298.0,,,,,False,,2239223.0,11.094561,49.459610999999995
Nürnberg,Altenfurt Nord,90475,Sprottauer Straße,119,,,,multi_family_house,1969-11-25,,,,,,,,,7.0,434.0,519.0,,,,,False,,1464478.0,11.171036,49.411861
Nürnberg,Glockenhof,90478,Findelwiesenstraße,33,,,,,1951-04-24,,,,,,,,,11.0,681.0,302.0,,,,,False,,1809000.0,11.092371,49.443719
Nürnberg,"Kornburg, Worzeldorf",90455,Röderweg,6,,,,multi_family_house,1988-11-16,,,,,,,,,12.0,1040.0,812.0,,,,,False,,2580570.0,11.099427,49.359966
Nürnberg,St. Leonhard,90439,Konstanzenstraße,8,,,,multi_family_house,2001-05-21,,,,,,,,,6.0,571.0,554.0,,,,,False,,1689679.0,11.036955,49.44002100000001
Nürnberg,St. Jobst,90491,Bad Bernecker Straße,4,,,,multi_family_house,1965-09-18,,,,,,,,,5.0,264.0,623.0,,,,,False,,904219.0,11.118153,49.468602999999995
Nürnberg,"Kornburg, Worzeldorf",90455,Kemptener Straße,62,,,,single_family_house,1971-11-12,,,,,,,,,1.0,150.0,557.0,,,,,False,,462170.0,11.075251,49.366211
Nürnberg,Laufamholz,90482,Strindbergstraße,3,,,,,1978-03-17,,,,,,,,,1.0,137.0,558.0,,,,,False,,465953.0,11.181932,49.468554
Nürnberg,"Kornburg, Worzeldorf",90455,Eichenlöhlein,45,,,,single_family_house,2000-01-20,,,,,,,,,1.0,155.0,785.0,,,,,False,,648464.0,11.082022,49.366461
Nürnberg,Nürnberg                  ,90453,Leutershauser Straße,62,,,,single_family_house,1993-09-01,,,,,,,,,1.0,123.0,283.0,,,,,False,,436725.0,11.021519999999999,49.377695
Nürnberg,Schoppershof,90491,Zwickauer Straße,30,,,,multi_family_house,1925-09-25,,,,,,,,,5.0,268.0,284.0,,,,,False,,890124.0,11.111836,49.47179300000001
Nürnberg,Gartenstadt,90469,Regenbogenstraße,63,,,,single_family_house,1920-03-16,,,,,,,,,1.0,111.0,266.0,,,,,False,,238407.0,11.072954000000001,49.416467000000004
Nürnberg,Trierer Straße,90469,Worzeldorfer Straße,160,,,,multi_family_house,1917-10-26,,,,,,,,,3.0,201.0,473.0,,,,,False,,558612.0,11.10941,49.404872000000005
Nürnberg,Gaismannshof,90431,Rothenburger Straße,260,,,,multi_family_house,1950-07-08,,,,,,,,,2.0,285.0,614.0,,,,,False,,754210.0,11.034553,49.441167
Nürnberg,Trierer Straße,90469,Worzeldorfer Straße,54,,,,single_family_house,1930-05-05,,,,,,,,,1.0,133.0,567.0,,,,,False,,380264.0,11.099625000000001,49.405300000000004
Nürnberg,St. Johannis,90419,Lange Zeile,38,,,,multi_family_house,1968-04-20,,,,,,,,,9.0,668.0,495.0,,,,,False,,1887688.0,11.068567,49.460954000000015
Nürnberg,Gartenstadt,90469,Neunkirchener Straße,30,,,,multi_family_house,1984-09-03,,,,,,,,,8.0,677.0,943.0,,,,,False,,1917136.0,11.080134,49.406288
Nürnberg,Eibach,90451,Thomasiusstraße,5 a,,,,single_family_house,1977-10-15,,,,,,,,,1.0,119.0,345.0,,,,,False,,372351.0,11.034003,49.405013
Nürnberg,Mooshof,90411,Marienbergstraße,110,,,,multi_family_house,1973-11-25,,,,,,,,,1.0,123.0,965.0,,,,,False,,400923.0,11.090544,49.485294
Nürnberg,"Kornburg, Worzeldorf",90455,Rothenbucherweg,13,,,,multi_family_house,1969-11-09,,,,,,,,,2.0,324.0,519.0,,,,,False,,568664.0,11.103796,49.354344
Nürnberg,Ziegelstein,90411,Thuisbrunner Straße,72,,,,,1925-05-07,,,,,,,,,1.0,95.0,593.0,,,,,False,,382619.0,11.11734,49.48917
Nürnberg,Katzwang,90453,Leharstraße,2 c,,,,single_family_house,1977-03-13,,,,,,,,,1.0,109.0,333.0,,,,,False,,289219.0,11.051095,49.364893
Nürnberg,Röthenbach Ost,90449,Koloniestraße,22,,,,single_family_house,1901-07-21,,,,,,,,,1.0,112.0,312.0,,,,,False,,249844.0,11.025998,49.41697
Nürnberg,Steinbühl,90443,Max-Planck-Straße,24,,,,multi_family_house,1951-06-18,,,,,,,,,11.0,500.0,621.0,,,,,False,,,11.065977,49.439049
Nürnberg,Schmausenbuckstraße,90480,Dientzenhoferstraße,60,,,,single_family_house,1955-02-21,,,,,,,,,1.0,123.0,262.0,,,,,False,,410313.0,11.129252,49.454248
Nürnberg,Langwasser Südost,90473,Hirschberger Straße,27,,,,single_family_house,1957-01-08,,,,,,,,,1.0,194.0,1177.0,,,,,False,,720609.0,11.145956,49.407861999999994
Nürnberg,Galgenhof,90459,Hummelsteiner Weg,72,,,,multi_family_house,1908-08-13,,,,,,,,,10.0,630.0,273.0,,,,,False,,1908055.0,11.085939999999999,49.43905
Nürnberg,Mögeldorf,90480,Blütenstraße,9 b,,,,single_family_house,1987-11-10,,,,,,,,,1.0,145.0,315.0,,,,,False,,403325.0,11.126743000000001,49.456525
Nürnberg,Glockenhof,90478,Obere Baustraße,24,,,,multi_family_house,1961-07-22,,,,,,,,,4.0,246.0,265.0,,,,,False,,664486.0,11.09157,49.443851
Nürnberg,Steinbühl,90443,Schloßäckerstraße,12,,,,multi_family_house,1961-01-09,,,,,,,,,9.0,430.0,329.0,,,,,False,,1136951.0,11.070637,49.441705
Nürnberg,Gugelstraße,90459,Gugelstraße,136,,,,multi_family_house,1965-11-04,,,,,,,,,9.0,604.0,269.0,,,,,False,,1520538.0,11.079775,49.431909000000005
Nürnberg,"Altenfurt, Moorenbrunn",90475,Karl-Hertel-Straße,29 b,,,,single_family_house,2000-05-10,,,,,,,,,1.0,126.0,524.0,,,,,False,,624088.0,11.17688,49.409984
Nürnberg,Galgenhof,90459,Bulmannstraße,13,,,,multi_family_house,1970-06-10,,,,,,,,,15.0,773.0,528.0,,,,,False,,2191793.0,11.083409000000001,49.441642
Nürnberg,Brunn,90475,Brunner Hauptstraße,9,,,,multi_family_house,1928-02-20,,,,,,,,,2.0,235.0,571.0,,,,,False,,511655.0,11.252096,49.436046999999995
Nürnberg,Brunn,90475,Birnthon,15A,,,,single_family_house,1884-07-05,,,,,,,,,1.0,61.0,457.0,,,,,False,,152736.0,11.261881,49.412448
Nürnberg,Tullnau,90402,Teutonenstraße,10,,,,multi_family_house,1930-09-16,,,,,,,,,2.0,246.0,634.0,,,,,True,,691288.0,11.109456,49.452622999999996
Nürnberg,Marienberg ,90411,Peter-Ulsch-Straße,45,,,,single_family_house,1952-04-02,,,,,,,,,1.0,131.0,287.0,,,,,False,,381161.0,11.101507,49.478004
Nürnberg,Schleifweg,90409,Reickeweg,6,,,,single_family_house,1933-07-05,,,,,,,,,1.0,109.0,320.0,,,,,False,,414216.0,11.093204,49.471756
Nürnberg,Hohe Marter,90441,Olivenweg,13,,,,multi_family_house,1957-01-18,,,,,,,,,8.0,611.0,895.0,,,,,False,,1541363.0,11.031723000000001,49.426665
Nürnberg,St. Leonhard,90439,Marie-Beeg-Straße,24,,,,multi_family_house,2033-09-06,,,,,,,,,12.0,1126.0,498.0,,,,,False,,3619010.0,11.053868000000001,49.441092999999995
Nürnberg,Hohe Marter,90441,Schweinauer Hauptstraße,112,,,,multi_family_house,1899-07-22,,,,,,,,,10.0,779.0,726.0,,,,,False,,2178587.0,11.042731999999999,49.427825
Nürnberg,St. Johannis,90419,Kirchenweg,61,,,,,1911-05-24,,,,,,,,,6.0,306.0,309.0,,,,,False,,1109228.0,11.061696,49.460485
Nürnberg,Röthenbach Ost,90449,Ellingstraße,30 a,,,,single_family_house,1997-10-11,,,,,,,,,1.0,106.0,272.0,,,,,False,,458188.0,11.035433000000001,49.416653
Nürnberg,Gebersdorf,90449,Zirndorfer Straße,27 a,,,,single_family_house,1941-05-21,,,,,,,,,1.0,101.0,294.0,,,,,False,,307305.0,11.000353,49.431199
Nürnberg,Fischbach,90475,Bauernfeldstraße,11 a,,,,multi_family_house,1964-10-22,,,,,,,,,9.0,915.0,690.0,,,,,False,,2574760.0,11.190409,49.422864000000004
Nürnberg,Veilhof,90489,Deumentenstraße,16,,,,multi_family_house,1880-01-25,,,,,,,,,7.0,649.0,627.0,,,,,False,,1821613.0,11.097556999999998,49.463414000000014
Nürnberg,Röthenbach West,90449,Schillingsfürster Straße,44,,,,single_family_house,1956-01-14,,,,,,,,,1.0,131.0,293.0,,,,,False,,356325.0,11.027588,49.424303
Nürnberg,Sündersbühl,90439,Nansenstraße,20,,,,multi_family_house,1960-10-19,,,,,,,,,5.0,408.0,861.0,,,,,False,,1104624.0,11.042413,49.443933
Nürnberg,Brunn,90475,Brunner Hauptstraße,74,,,,single_family_house,2005-08-21,,,,,,,,,1.0,112.0,484.0,,,,,False,,479023.0,11.260206,49.434154
Nürnberg,Ziegelstein,90411,Effeltricher Straße,17,,,,single_family_house,1940-08-23,,,,,,,,,1.0,123.0,478.0,,,,,False,,435547.0,11.114607999999999,49.48649
Nürnberg,Tullnau,90480,Gleißhammerstraße,71 a,,,,single_family_house,2010-03-25,,,,,,,,,1.0,126.0,336.0,,,,,False,,485612.0,11.115325999999998,49.451069999999994
Nürnberg,"Kornburg, Worzeldorf",90455,Bad Wörishofener Straße,60,,,,single_family_house,1981-04-23,,,,,,,,,1.0,116.0,336.0,,,,,False,,464986.0,11.070215,49.369323
Nürnberg,Eberhardshof,90429,Raabstraße,6,,,,multi_family_house,1913-11-17,,,,,,,,,9.0,655.0,270.0,,,,,False,,2354955.0,11.032435000000001,49.459179
Nürnberg,Marienberg ,90411,Greuleinweg,16,,,,,1985-04-12,,,,,,,,,1.0,110.0,179.0,,,,,False,,333721.0,11.102134,49.476824
Nürnberg,Röthenbach Ost,90449,Burgsalacher Straße,66,,,,single_family_house,1994-09-03,,,,,,,,,1.0,101.0,316.0,,,,,False,,343035.0,11.034097,49.417641
Nürnberg,St. Leonhard,90439,Marie-Beeg-Straße,49,,,,single_family_house,2014-09-20,,,,,,,,,1.0,117.0,252.0,,,,,False,,424483.0,11.054585000000001,49.441542999999996
Nürnberg,"Kornburg, Worzeldorf",90455,Wilhelm-Rieger-Straße,28,,,,single_family_house,2010-05-10,,,,,,,,,1.0,127.0,299.0,,,,,False,,524753.0,11.080911,49.373143
Nürnberg,Pirckheimerstraße,90408,Rollnerstraße,29B,,,,single_family_house,1995-05-21,,,,,,,,,1.0,88.0,610.0,,,,,False,,533455.0,11.082245,49.461749999999995
Nürnberg,Veilhof,90491,Bismarckstraße,31,,,,multi_family_house,,,,,,,,,,19.0,1018.0,467.0,,,,,False,,2807001.0,11.102607,49.464104
Nürnberg,Reichelsdorf,90453,Weltenburger Straße,191,,,,single_family_house,1985-07-25,,,,,,,,,1.0,105.0,323.0,,,,,False,,360664.0,11.038419999999999,49.384827
Nürnberg,Katzwang,90453,Kurlandstraße,91,,,,single_family_house,1981-06-04,,,,,,,,,1.0,104.0,325.0,,,,,False,,366539.0,11.05257,49.362633
Nürnberg,Eibach,90451,Traklstraße,12,,,,single_family_house,1971-01-27,,,,,,,,,1.0,130.0,314.0,,,,,False,,383637.0,11.04047,
Nürnberg,"Kornburg, Worzeldorf",90455,Keltenring,39,,,,multi_family_house,2010-06-11,,,,,,,,,9.0,707.0,727.0,,,,,False,,3101451.0,11.080125,49.369046
Nürnberg,Werderau,90441,Alpenrosenweg,6,,,,single_family_house,2008-01-26,,,,,,,,,1.0,95.0,599.0,,,,,False,,438376.0,11.060739,49.416492
Nürnberg,Himpfelshof,90429,Himpfelshofstraße,6,,,,multi_family_house,1961-07-18,,,,,,,,,5.0,290.0,294.0,,,,,False,,902520.0,11.062102,49.451715
Nürnberg,Werderau,90441,Listerstraße,2,,,,single_family_house,1926-01-25,,,,,,,,,1.0,115.0,723.0,,,,,False,,377413.0,11.064138,49.422428000000004
Nürnberg,"Altenfurt, Moorenbrunn",90475,Moorenbrunner Straße,21 a,,,,single_family_house,1943-08-10,,,,,,,,,1.0,112.0,566.0,,,,,False,,930710188.0,11.174275,49.393685000000005
Nürnberg,Wetzendorf,90425,Forchheimer Straße,43,,,,multi_family_house,2007-11-02,,,,,,,,,7.0,728.0,538.0,,,,,False,,2671197.0,11.058998,49.472925
Nürnberg,Trierer Straße,90469,Pirmasenser Straße,8,,,,multi_family_house,1979-05-22,,,,,,,,,4.0,287.0,602.0,,,,,False,,637757.0,11.095490999999999,49.400529999999996
Nürnberg,Galgenhof,90459,Breitscheidstraße,59,,,,multi_family_house,1949-09-05,,,,,,,,,9.0,418.0,306.0,,,,,False,,,11.087668,49.442218
Nürnberg,Katzwang,90453,Vorjurastraße,140,,,,,1979-10-10,,,,,,,,,1.0,106.0,337.0,,,,,False,,477850.0,11.041788,49.371103999999995
Nürnberg,Westfriedhof,90425,Dortmunder Straße,49 a,,,,single_family_house,1995-11-15,,,,,,,,,1.0,126.0,491.0,,,,,False,,600662.0,11.049548,49.465990000000005
Nürnberg,Neunhof,90427,Kreuzäckerstraße,10,,,,single_family_house,1947-01-06,,,,,,,,,1.0,174.0,702.0,,,,,False,,492351.0,11.050441999999999,49.521607
Nürnberg,Eibach,90451,Eibacher Hauptstraße,66,,,,multi_family_house,1899-09-12,,,,,,,,,7.0,401.0,529.0,,,,,False,,1317555.0,11.035033,49.402732
Nürnberg,Wetzendorf,90425,Jülicher Straße,49,,,,single_family_house,2002-04-20,,,,,,,,,1.0,160.0,635.0,,,,,False,,682492.0,11.051322,49.469347
Nürnberg,Fischbach,90475,Fischbacher Hauptstraße,127,,,,single_family_house,1961-09-14,,,,,,,,,1.0,134.0,526.0,,,,,False,,1141423440.0,11.187669,49.419331
Nürnberg,Dutzendteich,90478,Seumestraße,22,,,,single_family_house,1932-06-01,,,,,,,,,1.0,159.0,631.0,,,,,False,,429114.0,11.119221999999999,49.4344
Nürnberg,Langwasser Nordost,90471,Thomas-Mann-Straße,13 e,,,,single_family_house,1974-08-18,,,,,,,,,1.0,102.0,293.0,,,,,False,,433758.0,11.130013,49.411069
Nürnberg,Eibach,90451,Abenberger Straße,3,,,,single_family_house,1996-11-06,,,,,,,,,1.0,150.0,497.0,,,,,False,,551833.0,11.037759000000001,49.406465
Nürnberg,"Kornburg, Worzeldorf",90455,Stockweiherstraße,10,,,,single_family_house,1983-04-08,,,,,,,,,1.0,145.0,258.0,,,,,False,,393255.0,11.075125,49.378858
Nürnberg,Röthenbach Ost,90451,Jägerstraße,26 a,,,,single_family_house,1957-01-13,,,,,,,,,1.0,113.0,277.0,,,,,False,,415140.0,11.035926,49.413148000000014
Nürnberg,St. Leonhard,90439,Finkenstraße,5,,,,multi_family_house,1900-07-07,,,,,,,,,3.0,379.0,325.0,,,,,False,,1073173.0,11.054200999999999,49.440207
Nürnberg,Katzwang,90453,Katzwanger Hauptstraße,118,,,,multi_family_house,1918-06-08,,,,,,,,,2.0,197.0,585.0,,,,,False,,425437.0,11.047301,49.367522
Nürnberg,Schleifweg,90409,Schleifweg,8,,,,multi_family_house,1944-07-17,,,,,,,,,1.0,70.0,313.0,,,,,False,,273140.0,11.082294,
Nürnberg,"Kornburg, Worzeldorf",90455,Sigmund-Freud-Straße,6,,,,multi_family_house,1979-06-25,,,,,,,,,2.0,385.0,612.0,,,,,False,,773690.0,11.073186,49.376652
Nürnberg,Katzwang,90455,Bierleite,21,,,,single_family_house,1979-03-09,,,,,,,,,1.0,130.0,547.0,,,,,False,,476035.0,11.059612,49.359455999999994
Nürnberg,"Altstadt, St. Lorenz",90402,Pfarrgasse,9,,,,multi_family_house,1942-09-16,,,,,,,,,2.0,334.0,334.0,,,,,False,,986582.0,11.079868000000001,49.451722000000004
Nürnberg,Gartenstadt,90469,Regenbogenstraße,136,,,,,1928-08-12,,,,,,,,,1.0,84.0,296.0,,,,,False,,211763.0,11.074246,49.414149
Nürnberg,"Altenfurt, Moorenbrunn",90475,Salzburger Straße,42,,,,single_family_house,1948-05-10,,,,,,,,,1.0,117.0,332.0,,,,,False,,362819.0,11.172156,49.399696
Nürnberg,Erlenstegen,90491,Stormstraße,43,,,,,1967-10-17,,,,,,,,,1.0,142.0,591.0,,,,,True,,656867.0,11.123354,49.471988
Nürnberg,Eibach,90451,Pappenheimer Straße,78A,,,,single_family_house,1958-05-09,,,,,,,,,1.0,89.0,598.0,,,,,False,,365883.0,11.035662,49.395481000000004
Nürnberg,"Kornburg, Worzeldorf",90455,Konrad-Stör-Straße,90,,,,single_family_house,1981-06-15,,,,,,,,,1.0,109.0,281.0,,,,,False,,377674.0,11.071497,49.380509
Nürnberg,"Altenfurt, Moorenbrunn",90475,Salzachstraße,6,,,,single_family_house,1952-02-04,,,,,,,,,1.0,112.0,252.0,,,,,False,,362691.0,11.174885999999999,49.398365999999996
Nürnberg,Röthenbach West,90449,Creglinger Straße,42,,,,multi_family_house,1974-01-22,,,,,,,,,9.0,750.0,732.0,,,,,False,,2100370.0,11.032352,49.423637
Nürnberg,Reichelsdorf,90453,Walter-Flex-Straße,144,,,,single_family_house,1934-01-12,,,,,,,,,1.0,85.0,533.0,,,,,False,,321530.0,11.037649,49.388393
Nürnberg,Eibach,90451,Mittagstraße,44A,,,,single_family_house,1921-01-12,,,,,,,,,1.0,123.0,498.0,,,,,False,,422166.0,11.034661,49.396969
Nürnberg,Buchenbühl,90411,Hermann-Löns-Straße,31,,,,single_family_house,1924-05-07,,,,,,,,,1.0,99.0,625.0,,,,,False,,342083.0,11.113703000000001,49.500985
Nürnberg,Katzwang,90455,Greuther Straße,14,,,,multi_family_house,1973-03-08,,,,,,,,,3.0,244.0,280.0,,,,,False,,656522.0,11.060644,49.349055
Nürnberg,Marienberg ,90411,Falknerweg,30,,,,single_family_house,1958-10-16,,,,,,,,,1.0,125.0,310.0,,,,,False,,444932.0,11.100014,49.478956
Nürnberg,"Altenfurt, Moorenbrunn",90475,Altenfurter Straße,60 b,,,,multi_family_house,1984-07-11,,,,,,,,,4.0,302.0,285.0,,,,,False,,904310.0,11.175164,49.403849
Nürnberg,Buch ,90425,Schnepfenreuther Hauptstraße,38,,,,multi_family_house,2022-02-11,,,,,,,,,7.0,731.0,1050.0,,,,,False,,3313310.0,11.0526,49.48351100000001
Nürnberg,"Altstadt, St. Lorenz",90403,Kaspar-Hauser-Platz,10,,,,single_family_house,1990-07-07,,,,,,,,,1.0,83.0,277.0,,,,,False,,304218.0,11.07138,49.453424
Nürnberg,Großgründlach,90427,Großgründlacher Hauptstraße,31 a,,,,multi_family_house,1965-01-05,,,,,,,,,5.0,598.0,648.0,,,,,False,,1332733.0,11.010142,49.528751
Nürnberg,Mögeldorf,90482,Oberhaidelbacher Weg,10,,,,single_family_house,2020-01-24,,,,,,,,,1.0,110.0,314.0,,,,,False,,655947.0,11.142809,49.464373
Nürnberg,Langwasser Nordost,90471,Makarenkostraße,10,,,,single_family_house,2003-06-21,,,,,,,,,1.0,116.0,279.0,,,,,False,,530980.0,11.131714,49.418614000000005
Nürnberg,Wetzendorf,90425,Stralsunder Straße,26,,,,multi_family_house,1906-05-01,,,,,,,,,2.0,219.0,474.0,,,,,False,,666545.0,11.062622999999999,49.47603800000001
Nürnberg,Tafelhof,90443,Lessingstraße,4,,,,multi_family_house,2009-06-09,,,,,,,,,25.0,2129.0,803.0,,,,,False,,11633161.0,11.074605,49.446262000000004
Nürnberg,Ziegelstein,90411,Bierweg,18,,,,,1925-06-18,,,,,,,,,1.0,117.0,312.0,,,,,False,,322440.0,11.108032,49.484866000000004
Nürnberg,"Kornburg, Worzeldorf",90455,Paintweg,9,,,,single_family_house,1975-05-19,,,,,,,,,1.0,126.0,312.0,,,,,False,,312277.0,11.100725,49.357661
Nürnberg,Boxdorf,90427,Brüningstraße,1 a,,,,multi_family_house,1963-01-04,,,,,,,,,4.0,337.0,323.0,,,,,True,,779297.0,11.027323,49.51463699999999
Nürnberg,Pirckheimerstraße,90409,Pirckheimerstraße,77,,,,multi_family_house,1969-03-17,,,,,,,,,15.0,1147.0,587.0,,,,,False,,1125048404.0,11.084426,49.461028
Nürnberg,Gebersdorf,90449,Bibertstraße,129,,,,single_family_house,1965-10-09,,,,,,,,,1.0,115.0,326.0,,,,,False,,312366.0,11.003328999999999,49.432113
Nürnberg,Eibach,90451,Morgensternstraße,29,,,,single_family_house,1959-06-08,,,,,,,,,1.0,91.0,326.0,,,,,False,,365078.0,11.039692,
Nürnberg,Glockenhof,90478,Glockenhofstraße,38,,,,multi_family_house,1967-04-05,,,,,,,,,10.0,630.0,326.0,,,,,False,,1584493.0,11.092427,49.444054
Nürnberg,Thon,90425,Neusorgstraße,10,,,,single_family_house,2006-11-05,,,,,,,,,1.0,111.0,292.0,,,,,False,,584334.0,11.078229,49.4788
Nürnberg,Thon,90425,Schweriner Straße,72,,,,single_family_house,1950-03-14,,,,,,,,,1.0,92.0,310.0,,,,,False,,406914.0,11.069739,49.477978
Nürnberg,Höfen,90431,Höfener Straße,189,,,,multi_family_house,1960-06-08,,,,,,,,,2.0,338.0,502.0,,,,,False,,1023067.0,11.011521,49.450062
Nürnberg,Veilhof,90489,Fenitzerplatz,4,,,,multi_family_house,1901-02-01,,,,,,,,,10.0,782.0,511.0,,,,,False,,2529388.0,11.098887000000001,49.461722
Nürnberg,"Altenfurt, Moorenbrunn",90475,Wittelsbacherstraße,43 a,,,,single_family_house,1962-02-24,,,,,,,,,1.0,119.0,519.0,,,,,False,,477051.0,11.176424,49.407461000000005
